province,district,ward,wardLat,wardLon,wardAddress
Thành phố Cần Thơ,Huyện Cờ Đỏ,Xã Thạnh Phú,10.1216406,105.4433597,"Xã Thạnh Phú, Huyện Cờ Đỏ, Thành Phố Cần Thơ, Cần Thơ"
Thành phố Cần Thơ,Huyện Thới Lai,Xã Tân Thạnh,10.093391,105.582462,"Xã Tân Thạnh, Huyện Thới Lai, Thành Phố Cần Thơ, Cần Thơ"
Thành phố Cần Thơ,Huyện Vĩnh Thạnh,Xã Thạnh Quới,10.213274,105.37973,"Xã Thạnh Quới, Huyện Vĩnh Thạnh, Thành Phố Cần Thơ, Cần Thơ"
Thành phố Cần Thơ,Quận Bình Thủy,Phường Bùi Hữu Nghĩa,10.068964,105.757265,"Phường Bùi Hữu Nghĩa, Quận Bình Thủy, Thành Phố Cần Thơ, Cần Thơ"
Thành phố Cần Thơ,Quận Bình Thủy,Phường Long Tuyền,10.0253119,105.7198167,"Phường Long Tuyền, Quận Bình Thủy, Thành Phố Cần Thơ, Cần Thơ"
Thành phố Cần Thơ,Quận Thốt Nốt,Phường Thốt Nốt,10.27237,105.52239,"Phường Thốt Nốt, Cần Thơ"
Thành phố Huế,Thị xã Hương Trà,Phường Hương Vân,16.44696,107.42582,"Phường Hương Vân, Thừa Thiên-Huế"
Thành phố Huế,Thị xã Hương Trà,Phường Hương Văn,16.44696,107.42582,"Phường Hương Vân, Thừa Thiên-Huế"
Thành phố Hà Nội,Huyện Ba Vì,Thị trấn Tây Đằng,21.205988210751,105.4295488786,"Thị Trấn Tây Đằng, Huyện Ba Vì, Thành Phố Hà Nội, Hà Nội"
Thành phố Hà Nội,Huyện Ba Vì,Xã Chu Minh,21.197212,105.445089,"Xã Chu Minh, Huyện Ba Vì, Thành Phố Hà Nội, Hà Nội"
Thành phố Hà Nội,Huyện Ba Vì,Xã Cẩm Lĩnh,21.1874542,105.362271,"Xã Cẩm Lĩnh, Huyện Ba Vì, Thành Phố Hà Nội, Hà Nội"
Thành phố Hà Nội,Huyện Ba Vì,Xã Minh Quang,21.071192,105.321253,"Xã Minh Quang, Huyện Ba Vì, Thành Phố Hà Nội, Hà Nội"
Thành phố Hà Nội,Huyện Ba Vì,Xã Phú Đông,21.252151,105.374767,"Xã Phú Đông, Huyện Ba Vì, Thành Phố Hà Nội, Hà Nội"
Thành phố Hà Nội,Huyện Ba Vì,Xã Thụy An,21.156818,105.412649,"Xã Thụy An, Huyện Ba Vì, Thành Phố Hà Nội, Hà Nội"
Thành phố Hà Nội,Huyện Ba Vì,Xã Đông Quang,21.174804,105.4521887,"Xã Đông Quang, Huyện Ba Vì, Thành Phố Hà Nội, Hà Nội"
Thành phố Hà Nội,Huyện Chương Mỹ,Xã Lam Điền,20.892171,105.724891,"Xã Lam Điền, Huyện Chương Mỹ, Thành Phố Hà Nội, Hà Nội"
Thành phố Hà Nội,Huyện Chương Mỹ,Xã Tân Tiến,20.874496,105.610588,"Xã Tân Tiến, Huyện Chương Mỹ, Thành Phố Hà Nội, Hà Nội"
Thành phố Hà Nội,Huyện Gia Lâm,Thị trấn Trâu Quỳ,21.008891207568,105.937738208921,"Thị Trấn Trâu Quỳ, Huyện Gia Lâm, Thành Phố Hà Nội, Hà Nội"
Thành phố Hà Nội,Huyện Gia Lâm,Xã Bát Tràng,20.981426,105.913188,"Xã Bát Tràng, Huyện Gia Lâm, Thành Phố Hà Nội, Hà Nội"
Thành phố Hà Nội,Huyện Gia Lâm,Xã Cổ Bi,21.02997,105.9417711,"Xã Cổ Bi, Huyện Gia Lâm, Thành Phố Hà Nội, Hà Nội"
Thành phố Hà Nội,Huyện Gia Lâm,Xã Phù Đổng,21.056718,105.962063,"Xã Phù Đổng, Huyện Gia Lâm, Thành Phố Hà Nội, Hà Nội"
Thành phố Hà Nội,Huyện Gia Lâm,Xã Phú Sơn,21.019545,105.93714,"Huyện Gia Lâm, Gia Lâm, Thành Phố Hà Nội, Hà Nội"
Thành phố Hà Nội,Huyện Gia Lâm,Xã Đa Tốn,20.98969,105.933486,"Xã Đa Tốn, Huyện Gia Lâm, Thành Phố Hà Nội, Hà Nội"
Thành phố Hà Nội,Huyện Gia Lâm,Xã Đặng Xá,21.025501,105.9615867,"Xã Đặng Xá, Huyện Gia Lâm, Thành Phố Hà Nội, Hà Nội"
Thành phố Hà Nội,Huyện Hoài Đức,Xã An Khánh,21.0060394,105.7179531,"Xã An Khánh, Huyện Hoài Đức, Thành Phố Hà Nội, Hà Nội"
Thành phố Hà Nội,Huyện Hoài Đức,Xã An Thượng,20.999024,105.703609,"Xã An Thượng, Huyện Hoài Đức, Thành Phố Hà Nội, Hà Nội"
Thành phố Hà Nội,Huyện Hoài Đức,Xã Kim Chung,21.052488,105.71019,"Xã Kim Chung, Huyện Hoài Đức, Thành Phố Hà Nội, Hà Nội"
Thành phố Hà Nội,Huyện Hoài Đức,Xã La Phù,20.9769015,105.7314133,"Xã La Phù, Huyện Hoài Đức, Thành Phố Hà Nội, Hà Nội"
Thành phố Hà Nội,Huyện Hoài Đức,Xã Song Phương,21.013673,105.698153,"Xã Song Phương, Huyện Hoài Đức, Thành Phố Hà Nội, Hà Nội"
Thành phố Hà Nội,Huyện Hoài Đức,Xã Sơn Đồng,21.043125,105.699828,"Xã Sơn Đồng, Huyện Hoài Đức, Thành Phố Hà Nội, Hà Nội"
Thành phố Hà Nội,Huyện Hoài Đức,Xã Vân Canh,21.034993,105.730446,"Xã Vân Canh, Huyện Hoài Đức, Thành Phố Hà Nội, Hà Nội"
Thành phố Hà Nội,Huyện Hoài Đức,Xã Vân Côn,20.989746,105.678105,"Xã Vân Côn, Huyện Hoài Đức, Thành Phố Hà Nội, Hà Nội"
Thành phố Hà Nội,Huyện Mê Linh,Xã Kim Hoa,21.220055,105.745148,"Xã Kim Hoa, Huyện Mê Linh, Thành Phố Hà Nội, Hà Nội"
Thành phố Hà Nội,Huyện Mê Linh,Xã Mê Linh,21.15792,105.73278,"Xã Mê Linh, Huyện Mê Linh, Thành Phố Hà Nội, Hà Nội"
Thành phố Hà Nội,Huyện Mê Linh,Xã Thanh Lâm,21.204085451651,105.724056883641,"Xã Thanh Lâm, Huyện Mê Linh, Thành Phố Hà Nội, Hà Nội"
Thành phố Hà Nội,Huyện Mê Linh,Xã Thạch Đà,21.1725073,105.6733225,"Xã Thạch Đà, Huyện Mê Linh, Thành Phố Hà Nội, Hà Nội"
Thành phố Hà Nội,Huyện Mê Linh,Xã Tiến Thịnh,21.18026,105.635245,"Xã Tiến Thịnh, Huyện Mê Linh, Thành Phố Hà Nội, Hà Nội"
Thành phố Hà Nội,Huyện Mê Linh,Xã Tiền Phong,21.151464,105.757494,"Xã Tiền Phong, Huyện Mê Linh, Thành Phố Hà Nội, Hà Nội"
Thành phố Hà Nội,Huyện Mê Linh,Xã Văn Khê,21.1636444,105.7057576,"Xã Văn Khê, Huyện Mê Linh, Thành Phố Hà Nội, Hà Nội"
Thành phố Hà Nội,Huyện Mê Linh,Xã Đại Thịnh,21.180321,105.727784,"Xã Đại Thịnh, Huyện Mê Linh, Thành Phố Hà Nội, Hà Nội"
Thành phố Hà Nội,Huyện Mỹ Đức,Xã Đại Hưng,20.6688795,105.7679223,"Xã Đại Hưng, Huyện Mỹ Đức, Thành Phố Hà Nội, Hà Nội"
Thành phố Hà Nội,Huyện Mỹ Đức,Xã Đồng Tâm,20.80379,105.673539,"Xã Đồng Tâm, Huyện Mỹ Đức, Thành Phố Hà Nội, Hà Nội"
Thành phố Hà Nội,Huyện Phú Xuyên,Xã Vân Từ,20.7198079,105.8914231,"Xã Vân Từ, Huyện Phú Xuyên, Thành Phố Hà Nội, Hà Nội"
Thành phố Hà Nội,Huyện Phúc Thọ,Xã Vân Phúc,21.1496628,105.5898037,"Xã Vân Phúc, Huyện Phúc Thọ, Thành Phố Hà Nội, Hà Nội"
Thành phố Hà Nội,Huyện Quốc Oai,Thị trấn Quốc Oai,20.98983,105.641672,"Quốc Oai, Huyện Quốc Oai, Thành Phố Hà Nội, Hà Nội"
Thành phố Hà Nội,Huyện Quốc Oai,Xã Ngọc Liệp,20.9949546,105.5996706,"Xã Ngọc Liệp, Huyện Quốc Oai, Thành Phố Hà Nội, Hà Nội"
Thành phố Hà Nội,Huyện Quốc Oai,Xã Ngọc Mỹ,20.989973,105.62649,"Xã Ngọc Mỹ, Huyện Quốc Oai, Thành Phố Hà Nội, Hà Nội"
Thành phố Hà Nội,Huyện Quốc Oai,Xã Phú Cát,20.9727431,105.5582365,"Xã Phú Cát, Huyện Quốc Oai, Thành Phố Hà Nội, Hà Nội"
Thành phố Hà Nội,Huyện Quốc Oai,Xã Phượng Sơn,20.98983,105.641672,"Huyện Quốc Oai, Quốc Oai, Thành Phố Hà Nội, Hà Nội"
Thành phố Hà Nội,Huyện Quốc Oai,Xã Đồng Quang,20.97693,105.661161,"Xã Đồng Quang, Huyện Quốc Oai, Thành Phố Hà Nội, Hà Nội"
Thành phố Hà Nội,Huyện Sóc Sơn,Xã Mai Đình,21.222069,105.83431,"Xã Mai Đình, Huyện Sóc Sơn, Thành Phố Hà Nội, Hà Nội"
Thành phố Hà Nội,Huyện Sóc Sơn,Xã Phú Minh,21.197045,105.817502,"Xã Phú Minh, Huyện Sóc Sơn, Thành Phố Hà Nội, Hà Nội"
Thành phố Hà Nội,Huyện Sóc Sơn,Xã Quang Tiến,21.238731,105.806921,"Xã Quang Tiến, Huyện Sóc Sơn, Thành Phố Hà Nội, Hà Nội"
Thành phố Hà Nội,Huyện Thanh Oai,Xã Cự Khê,20.9209206,105.7800883,"Xã Cự Khê, Huyện Thanh Oai, Thành Phố Hà Nội, Hà Nội"
Thành phố Hà Nội,Huyện Thanh Oai,Xã Kim Thư,20.837251,105.766107,"Xã Kim Thư, Huyện Thanh Oai, Thành Phố Hà Nội, Hà Nội"
Thành phố Hà Nội,Huyện Thanh Trì,Thị trấn Văn Điển,20.9581241,105.842343166667,"Thị Trấn Văn Điển, Huyện Thanh Trì, Thành Phố Hà Nội, Hà Nội"
Thành phố Hà Nội,Huyện Thanh Trì,Xã Duyên Hà,20.926049,105.8815059,"Xã Duyên Hà, Huyện Thanh Trì, Thành Phố Hà Nội, Hà Nội"
Thành phố Hà Nội,Huyện Thanh Trì,Xã Hữu Hòa,20.943616,105.805202,"Xã Hữu Hòa, Huyện Thanh Trì, Thành Phố Hà Nội, Hà Nội"
Thành phố Hà Nội,Huyện Thanh Trì,Xã Liên Ninh,20.9099029,105.857827,"Xã Liên Ninh, Huyện Thanh Trì, Thành Phố Hà Nội, Hà Nội"
Thành phố Hà Nội,Huyện Thanh Trì,Xã Ngũ Hiệp,20.923743,105.859579,"Xã Ngũ Hiệp, Huyện Thanh Trì, Thành Phố Hà Nội, Hà Nội"
Thành phố Hà Nội,Huyện Thanh Trì,Xã Tam Hiệp,20.95077,105.839747,"Xã Tam Hiệp, Huyện Thanh Trì, Thành Phố Hà Nội, Hà Nội"
Thành phố Hà Nội,Huyện Thanh Trì,Xã Thanh Liệt,20.962295,105.814589,"Xã Thanh Liệt, Huyện Thanh Trì, Thành Phố Hà Nội, Hà Nội"
Thành phố Hà Nội,Huyện Thanh Trì,Xã Tân Triều,20.979064,105.801888,"Xã Tân Triều, Huyện Thanh Trì, Thành Phố Hà Nội, Hà Nội"
Thành phố Hà Nội,Huyện Thanh Trì,Xã Tả Thanh Oai,20.93595,105.804391,"Xã Tả Thanh Oai, Huyện Thanh Trì, Thành Phố Hà Nội, Hà Nội"
Thành phố Hà Nội,Huyện Thanh Trì,Xã Tứ Hiệp,20.946819,105.8526309,"Xã Tứ Hiệp, Huyện Thanh Trì, Thành Phố Hà Nội, Hà Nội"
Thành phố Hà Nội,Huyện Thanh Trì,Xã Vĩnh Quỳnh,20.934917,105.82987,"Xã Vĩnh Quỳnh, Huyện Thanh Trì, Thành Phố Hà Nội, Hà Nội"
Thành phố Hà Nội,Huyện Thanh Trì,Xã Vạn Phúc,20.9232069,105.900591,"Xã Vạn Phúc, Huyện Thanh Trì, Thành Phố Hà Nội, Hà Nội"
Thành phố Hà Nội,Huyện Thanh Trì,Xã Yên Mỹ,20.948193,105.874776,"Xã Yên Mỹ, Huyện Thanh Trì, Thành Phố Hà Nội, Hà Nội"
Thành phố Hà Nội,Huyện Thanh Trì,Xã Đông Mỹ,20.918268,105.873997,"Xã Đông Mỹ, Huyện Thanh Trì, Thành Phố Hà Nội, Hà Nội"
Thành phố Hà Nội,Huyện Thanh Trì,Xã Đại áng,20.9050535,105.8291283,"Xã Đại Áng, Huyện Thanh Trì, Thành Phố Hà Nội, Hà Nội"
Thành phố Hà Nội,Huyện Thường Tín,Xã Duyên Thái,20.899157,105.863564,"Xã Duyên Thái, Huyện Thường Tín, Thành Phố Hà Nội, Hà Nội"
Thành phố Hà Nội,Huyện Thường Tín,Xã Khánh Hà,20.8890565,105.819869,"Xã Khánh Hà, Huyện Thường Tín, Thành Phố Hà Nội, Hà Nội"
Thành phố Hà Nội,Huyện Thường Tín,Xã Ninh Sở,20.896833,105.887464,"Xã Ninh Sở, Huyện Thường Tín, Thành Phố Hà Nội, Hà Nội"
Thành phố Hà Nội,Huyện Thường Tín,Xã Tiền Phong,20.8575323,105.829591,"Xã Tiền Phong, Huyện Thường Tín, Thành Phố Hà Nội, Hà Nội"
Thành phố Hà Nội,Huyện Thường Tín,Xã Tô Hiệu,20.8053865,105.8844097,"Xã Tô Hiệu, Huyện Thường Tín, Thành Phố Hà Nội, Hà Nội"
Thành phố Hà Nội,Huyện Thường Tín,Xã Văn Tự,20.7889841,105.8916652,"Xã Văn Tự, Huyện Thường Tín, Thành Phố Hà Nội, Hà Nội"
Thành phố Hà Nội,Huyện Thường Tín,Xã Vạn Nhất,20.8688167,105.8620985,"Huyện Thường Tín, Thường Tín, Thành Phố Hà Nội, Hà Nội"
Thành phố Hà Nội,Huyện Thạch Thất,Xã Bình Yên,21.040741,105.548152,"Xã Bình Yên, Huyện Thạch Thất, Thành Phố Hà Nội, Hà Nội"
Thành phố Hà Nội,Huyện Thạch Thất,Xã Hạ Bằng,21.0100542,105.5570398,"Xã Hạ Bằng, Huyện Thạch Thất, Thành Phố Hà Nội, Hà Nội"
Thành phố Hà Nội,Huyện Thạch Thất,Xã Quang Trung,21.018889019958,105.530828994531,"Huyện Thạch Thất, Thành Phố Hà Nội, Hà Nội"
Thành phố Hà Nội,Huyện Thạch Thất,Xã Thạch Hòa,21.003796,105.520274,"Xã Thạch Hòa, Huyện Thạch Thất, Thành Phố Hà Nội, Hà Nội"
Thành phố Hà Nội,Huyện Thạch Thất,Xã Tiến Xuân,20.9693888,105.490583,"Xã Tiến Xuân, Huyện Thạch Thất, Thành Phố Hà Nội, Hà Nội"
Thành phố Hà Nội,Huyện Thạch Thất,Xã Tân Xã,21.02093,105.549775,"Xã Tân Xã, Huyện Thạch Thất, Thành Phố Hà Nội, Hà Nội"
Thành phố Hà Nội,Huyện Đan Phượng,Xã Hồng Hà,21.131421,105.689417,"Xã Hồng Hà, Huyện Đan Phượng, Thành Phố Hà Nội, Hà Nội"
Thành phố Hà Nội,Huyện Đan Phượng,Xã Liên Hà,21.110133,105.717713,"Xã Liên Hà, Huyện Đan Phượng, Thành Phố Hà Nội, Hà Nội"
Thành phố Hà Nội,Huyện Đan Phượng,Xã Liên Hồng,21.121174,105.705644,"Xã Liên Hồng, Huyện Đan Phượng, Thành Phố Hà Nội, Hà Nội"
Thành phố Hà Nội,Huyện Đan Phượng,Xã Liên Trung,21.109967,105.724913,"Xã Liên Trung, Huyện Đan Phượng, Thành Phố Hà Nội, Hà Nội"
Thành phố Hà Nội,Huyện Đan Phượng,Xã Song Phượng,21.0827685,105.6624224,"Xã Song Phượng, Huyện Đan Phượng, Thành Phố Hà Nội, Hà Nội"
Thành phố Hà Nội,Huyện Đan Phượng,Xã Thọ An,21.127017,105.641026,"Xã Thọ An, Huyện Đan Phượng, Thành Phố Hà Nội, Hà Nội"
Thành phố Hà Nội,Huyện Đan Phượng,Xã Thọ Xuân,21.123668,105.647721,"Xã Thọ Xuân, Huyện Đan Phượng, Thành Phố Hà Nội, Hà Nội"
Thành phố Hà Nội,Huyện Đan Phượng,Xã Trung Châu,21.139735,105.628733,"Xã Trung Châu, Huyện Đan Phượng, Thành Phố Hà Nội, Hà Nội"
Thành phố Hà Nội,Huyện Đan Phượng,Xã Tân Lập,21.080797,105.710547,"Xã Tân Lập, Huyện Đan Phượng, Thành Phố Hà Nội, Hà Nội"
Thành phố Hà Nội,Huyện Đông Anh,Thị trấn Đông Anh,21.140395,105.849147,"Đông Anh, Huyện Đông Anh, Thành Phố Hà Nội, Hà Nội"
Thành phố Hà Nội,Huyện Đông Anh,Xã Dục Tú,21.1231344,105.9054817,"Xã Dục Tú, Huyện Đông Anh, Thành Phố Hà Nội, Hà Nội"
Thành phố Hà Nội,Huyện Đông Anh,Xã Hải Bối,21.1098214,105.7957671,"Xã Hải Bối, Huyện Đông Anh, Thành Phố Hà Nội, Hà Nội"
Thành phố Hà Nội,Huyện Đông Anh,Xã Kim Chung,21.129874,105.779213,"Xã Kim Chung, Huyện Đông Anh, Thành Phố Hà Nội, Hà Nội"
Thành phố Hà Nội,Huyện Đông Anh,Xã Kim Nỗ,21.132153,105.793607,"Xã Kim Nỗ, Huyện Đông Anh, Thành Phố Hà Nội, Hà Nội"
Thành phố Hà Nội,Huyện Đông Anh,Xã Liên Hà,21.151258,105.898926,"Xã Liên Hà, Huyện Đông Anh, Thành Phố Hà Nội, Hà Nội"
Thành phố Hà Nội,Huyện Đông Anh,Xã Nguyên Khê,21.177664,105.839617,"Xã Nguyên Khê, Huyện Đông Anh, Thành Phố Hà Nội, Hà Nội"
Thành phố Hà Nội,Huyện Đông Anh,Xã Tiên Dương,21.1424429,105.8338428,"Xã Tiên Dương, Huyện Đông Anh, Thành Phố Hà Nội, Hà Nội"
Thành phố Hà Nội,Huyện Đông Anh,Xã Tàm Xá,21.1082267,105.8425112,"Xã Tầm Xá, Huyện Đông Anh, Thành Phố Hà Nội, Hà Nội"
Thành phố Hà Nội,Huyện Đông Anh,Xã Uy Nỗ,21.138587,105.85548,"Xã Uy Nỗ, Huyện Đông Anh, Thành Phố Hà Nội, Hà Nội"
Thành phố Hà Nội,Huyện Đông Anh,Xã Việt Hùng,21.136925,105.875571,"Xã Việt Hùng, Huyện Đông Anh, Thành Phố Hà Nội, Hà Nội"
Thành phố Hà Nội,Huyện Đông Anh,Xã Vĩnh Ngọc,21.1149765,105.830284,"Xã Vĩnh Ngọc, Huyện Đông Anh, Thành Phố Hà Nội, Hà Nội"
Thành phố Hà Nội,Huyện Đông Anh,Xã Xuân Canh,21.090495,105.850952,"Xã Xuân Canh, Huyện Đông Anh, Thành Phố Hà Nội, Hà Nội"
Thành phố Hà Nội,Huyện Đông Anh,Xã Xuân Nộn,21.1841686,105.8733509,"Xã Xuân Nộn, Huyện Đông Anh, Thành Phố Hà Nội, Hà Nội"
Thành phố Hà Nội,Huyện Đông Anh,Xã Đại Mạch,21.1244735,105.75965,"Xã Đại Mạch, Huyện Đông Anh, Thành Phố Hà Nội, Hà Nội"
Thành phố Hà Nội,Huyện Ứng Hòa,Xã Đại Hùng,20.661496,105.840923,"Xã Đại Hùng, Huyện Ứng Hòa, Thành Phố Hà Nội, Hà Nội"
Thành phố Hà Nội,Quận Ba Đình,Phường Cống Vị,21.037648,105.808419,"Phường Cống Vị, Quận Ba Đình, Thành Phố Hà Nội, Hà Nội"
Thành phố Hà Nội,Quận Ba Đình,Phường Kim Mã,21.031639,105.823499,"Phường Kim Mã, Quận Ba Đình, Thành Phố Hà Nội, Hà Nội"
Thành phố Hà Nội,Quận Ba Đình,Phường Ngọc Hà,21.039135,105.822382,"Phường Ngọc Hà, Quận Ba Đình, Thành Phố Hà Nội, Hà Nội"
Thành phố Hà Nội,Quận Ba Đình,Phường Ngọc Khánh,21.029779,105.810688,"Phường Ngọc Khánh, Quận Ba Đình, Thành Phố Hà Nội, Hà Nội"
Thành phố Hà Nội,Quận Ba Đình,Phường Thành Công,21.021896,105.815736,"Phường Thành Công, Quận Ba Đình, Thành Phố Hà Nội, Hà Nội"
Thành phố Hà Nội,Quận Ba Đình,Phường Điện Biên,21.03224,105.8391005,"Phường Điện Biên, Quận Ba Đình, Thành Phố Hà Nội, Hà Nội"
Thành phố Hà Nội,Quận Ba Đình,Phường Đội Cấn,21.035003,105.826951,"Phường Đội Cấn, Quận Ba Đình, Thành Phố Hà Nội, Hà Nội"
Thành phố Hà Nội,Quận Bắc Từ Liêm,Phường Cổ Nhuế 1,21.056533,105.7883457,"Cổ Nhuế 1, Quận Bắc Từ Liêm, Thành Phố Hà Nội, Hà Nội"
Thành phố Hà Nội,Quận Bắc Từ Liêm,Phường Cổ Nhuế 2,21.060574,105.780328,"Cổ Nhuế 2, Quận Bắc Từ Liêm, Thành Phố Hà Nội, Hà Nội"
Thành phố Hà Nội,Quận Bắc Từ Liêm,Phường Minh Khai,21.051109,105.743706,"Minh Khai, Quận Bắc Từ Liêm, Thành Phố Hà Nội, Hà Nội"
Thành phố Hà Nội,Quận Bắc Từ Liêm,Phường Phúc Diễn,21.0464586,105.7491855,"Phúc Diễn, Quận Bắc Từ Liêm, Thành Phố Hà Nội, Hà Nội"
Thành phố Hà Nội,Quận Bắc Từ Liêm,Phường Thụy Phương,21.089864,105.777367,"Thụy Phương, Quận Bắc Từ Liêm, Thành Phố Hà Nội, Hà Nội"
Thành phố Hà Nội,Quận Bắc Từ Liêm,Phường Tây Tựu,21.069748,105.730943,"Tây Tựu, Quận Bắc Từ Liêm, Thành Phố Hà Nội, Hà Nội"
Thành phố Hà Nội,Quận Bắc Từ Liêm,Phường Xuân Tảo,21.070016,105.803024,"Xuân Tảo, Quận Bắc Từ Liêm, Thành Phố Hà Nội, Hà Nội"
Thành phố Hà Nội,Quận Bắc Từ Liêm,Phường Xuân Đỉnh,21.071568,105.797171,"Xuân Đỉnh, Quận Bắc Từ Liêm, Thành Phố Hà Nội, Hà Nội"
Thành phố Hà Nội,Quận Bắc Từ Liêm,Phường Đông Ngạc,21.091138,105.784713,"Đông Ngạc, Quận Bắc Từ Liêm, Thành Phố Hà Nội, Hà Nội"
Thành phố Hà Nội,Quận Cầu Giấy,Phường Dịch Vọng,21.0358331,105.7944618,"Phường Dịch Vọng, Quận Cầu Giấy, Thành Phố Hà Nội, Hà Nội"
Thành phố Hà Nội,Quận Cầu Giấy,Phường Dịch Vọng Hậu,21.030529,105.787299,"Phường Dịch Vọng Hậu, Quận Cầu Giấy, Thành Phố Hà Nội, Hà Nội"
Thành phố Hà Nội,Quận Cầu Giấy,Phường Mai Dịch,21.035839,105.778801,"Phường Mai Dịch, Quận Cầu Giấy, Thành Phố Hà Nội, Hà Nội"
Thành phố Hà Nội,Quận Cầu Giấy,Phường Nghĩa Đô,21.048635,105.805269,"Phường Nghĩa Đô, Quận Cầu Giấy, Thành Phố Hà Nội, Hà Nội"
Thành phố Hà Nội,Quận Cầu Giấy,Phường Quan Hoa,21.035713631102,105.800797206549,"Phường Quan Hoa, Quận Cầu Giấy, Thành Phố Hà Nội, Hà Nội"
Thành phố Hà Nội,Quận Cầu Giấy,Phường Trung Hòa,21.014361,105.805167,"Phường Trung Hòa, Quận Cầu Giấy, Thành Phố Hà Nội, Hà Nội"
Thành phố Hà Nội,Quận Cầu Giấy,Phường Yên Hòa,21.022977,105.79806,"Phường Yên Hòa, Quận Cầu Giấy, Thành Phố Hà Nội, Hà Nội"
Thành phố Hà Nội,Quận Hai Bà Trưng,Phường Bạch Đằng,21.009578,105.864766,"Phường Bạch Đằng, Quận Hai Bà Trưng, Thành Phố Hà Nội, Hà Nội"
Thành phố Hà Nội,Quận Hai Bà Trưng,Phường Lê Đại Hành,21.012182518406,105.845565112043,"Phường Lê Đại Hành, Quận Hai Bà Trưng, Thành Phố Hà Nội, Hà Nội"
Thành phố Hà Nội,Quận Hai Bà Trưng,Phường Minh Khai,20.995118,105.85615,"Phường Minh Khai, Quận Hai Bà Trưng, Thành Phố Hà Nội, Hà Nội"
Thành phố Hà Nội,Quận Hai Bà Trưng,Phường Nguyễn Du,21.01704,105.848712,"Phường Nguyễn Du, Quận Hai Bà Trưng, Thành Phố Hà Nội, Hà Nội"
Thành phố Hà Nội,Quận Hai Bà Trưng,Phường Phạm Đình Hổ,21.0162,105.85651,"Phường Phạm Đình Hổ, Ha Nội"
Thành phố Hà Nội,Quận Hai Bà Trưng,Phường Thanh Lương,21.00605,105.867607,"Phường Thanh Lương, Quận Hai Bà Trưng, Thành Phố Hà Nội, Hà Nội"
Thành phố Hà Nội,Quận Hai Bà Trưng,Phường Thanh Nhàn,21.004058,105.852851,"Phường Thanh Nhàn, Quận Hai Bà Trưng, Thành Phố Hà Nội, Hà Nội"
Thành phố Hà Nội,Quận Hai Bà Trưng,Phường Trương Định,20.995796,105.847063,"Phường Trương Định, Quận Hai Bà Trưng, Thành Phố Hà Nội, Hà Nội"
Thành phố Hà Nội,Quận Hai Bà Trưng,Phường Vĩnh Tuy,21.001318,105.871761,"Phường Vĩnh Tuy, Quận Hai Bà Trưng, Thành Phố Hà Nội, Hà Nội"
Thành phố Hà Nội,Quận Hai Bà Trưng,Phường Đồng Tâm,21.001569,105.841454,"Phường Đồng Tâm, Quận Hai Bà Trưng, Thành Phố Hà Nội, Hà Nội"
Thành phố Hà Nội,Quận Hoàn Kiếm,Phường Cửa Nam,21.026208,105.843575,"Phường Cửa Nam, Quận Hoàn Kiếm, Thành Phố Hà Nội, Hà Nội"
Thành phố Hà Nội,Quận Hoàn Kiếm,Phường Cửa Đông,21.0335111,105.846145,"Phường Cửa Đông, Quận Hoàn Kiếm, Thành Phố Hà Nội, Hà Nội"
Thành phố Hà Nội,Quận Hoàn Kiếm,Phường Hàng Bông,21.029849,105.846193,"Phường Hàng Bông, Quận Hoàn Kiếm, Thành Phố Hà Nội, Hà Nội"
Thành phố Hà Nội,Quận Hoàn Kiếm,Phường Hàng Trống,21.028595,105.850825,"Phường Hàng Trống, Quận Hoàn Kiếm, Thành Phố Hà Nội, Hà Nội"
Thành phố Hà Nội,Quận Hoàn Kiếm,Phường Tràng Tiền,21.025629,105.854467,"Phường Tràng Tiền, Quận Hoàn Kiếm, Thành Phố Hà Nội, Hà Nội"
Thành phố Hà Nội,Quận Hoàn Kiếm,Phường Đồng Xuân,21.0393018,105.8511156,"Phường Đồng Xuân, Quận Hoàn Kiếm, Thành Phố Hà Nội, Hà Nội"
Thành phố Hà Nội,Quận Hoàng Mai,Phường Giáp Bát,20.98524,105.844037,"Phường Giáp Bát, Quận Hoàng Mai, Thành Phố Hà Nội, Hà Nội"
Thành phố Hà Nội,Quận Hoàng Mai,Phường Hoàng Liệt,20.967954,105.836684,"Phường Hoàng Liệt, Quận Hoàng Mai, Thành Phố Hà Nội, Hà Nội"
Thành phố Hà Nội,Quận Hoàng Mai,Phường Hoàng Văn Thụ,20.983807,105.863086,"Phường Hoàng Văn Thụ, Quận Hoàng Mai, Thành Phố Hà Nội, Hà Nội"
Thành phố Hà Nội,Quận Hoàng Mai,Phường Lĩnh Nam,20.9803145,105.8902897,"Phường Lĩnh Nam, Quận Hoàng Mai, Thành Phố Hà Nội, Hà Nội"
Thành phố Hà Nội,Quận Hoàng Mai,Phường Mai Động,20.991002,105.862282,"Phường Mai Động, Quận Hoàng Mai, Thành Phố Hà Nội, Hà Nội"
Thành phố Hà Nội,Quận Hoàng Mai,Phường Thanh Trì,20.994673,105.886279,"Phường Thanh Trì, Quận Hoàng Mai, Thành Phố Hà Nội, Hà Nội"
Thành phố Hà Nội,Quận Hoàng Mai,Phường Thịnh Liệt,20.974106418623,105.850541311015,"Phường Thịnh Liệt, Quận Hoàng Mai, Thành Phố Hà Nội, Hà Nội"
Thành phố Hà Nội,Quận Hoàng Mai,Phường Trần Phú,20.972565,105.884139,"Phường Trần Phú, Quận Hoàng Mai, Thành Phố Hà Nội, Hà Nội"
Thành phố Hà Nội,Quận Hoàng Mai,Phường Tân Mai,20.983092,105.849879,"Phường Tân Mai, Quận Hoàng Mai, Thành Phố Hà Nội, Hà Nội"
Thành phố Hà Nội,Quận Hoàng Mai,Phường Tương Mai,20.991057,105.845313,"Phường Tương Mai, Quận Hoàng Mai, Thành Phố Hà Nội, Hà Nội"
Thành phố Hà Nội,Quận Hoàng Mai,Phường Vĩnh Hưng,20.998266,105.879864,"Phường Vĩnh Hưng, Quận Hoàng Mai, Thành Phố Hà Nội, Hà Nội"
Thành phố Hà Nội,Quận Hoàng Mai,Phường Yên Sở,20.967554,105.871623,"Phường Yên Sở, Quận Hoàng Mai, Thành Phố Hà Nội, Hà Nội"
Thành phố Hà Nội,Quận Hoàng Mai,Phường Đại Kim,20.97808,105.821161,"Phường Đại Kim, Quận Hoàng Mai, Thành Phố Hà Nội, Hà Nội"
Thành phố Hà Nội,Quận Hoàng Mai,Phường Định Công,20.981786,105.829929,"Phường Định Công, Quận Hoàng Mai, Thành Phố Hà Nội, Hà Nội"
Thành phố Hà Nội,Quận Hà Đông,Phường Dương Nội,20.981534,105.748875,"Phường Dương Nội, Quận Hà Đông, Thành Phố Hà Nội, Hà Nội"
Thành phố Hà Nội,Quận Hà Đông,Phường Hà Cầu,20.968752,105.768958,"Phường Hà Cầu, Quận Hà Đông, Thành Phố Hà Nội, Hà Nội"
Thành phố Hà Nội,Quận Hà Đông,Phường Kiến Hưng,20.960336,105.78731,"Phường Kiến Hưng, Quận Hà Đông, Thành Phố Hà Nội, Hà Nội"
Thành phố Hà Nội,Quận Hà Đông,Phường La Khê,20.968755,105.763758,"Phường La Khê, Quận Hà Đông, Thành Phố Hà Nội, Hà Nội"
Thành phố Hà Nội,Quận Hà Đông,Phường Mộ Lao,20.977547,105.782808,"Phường Mộ Lao, Quận Hà Đông, Thành Phố Hà Nội, Hà Nội"
Thành phố Hà Nội,Quận Hà Đông,Phường Phú La,20.956665,105.764342,"Phường Phú La, Quận Hà Đông, Thành Phố Hà Nội, Hà Nội"
Thành phố Hà Nội,Quận Hà Đông,Phường Phú Lương,20.940348,105.763587,"Phường Phú Lương, Quận Hà Đông, Thành Phố Hà Nội, Hà Nội"
Thành phố Hà Nội,Quận Hà Đông,Phường Quang Trung,20.969427,105.772956,"Phường Quang Trung, Quận Hà Đông, Thành Phố Hà Nội, Hà Nội"
Thành phố Hà Nội,Quận Hà Đông,Phường Văn Quán,20.974536,105.787311,"Phường Văn Quán, Quận Hà Đông, Thành Phố Hà Nội, Hà Nội"
Thành phố Hà Nội,Quận Hà Đông,Phường Yên Nghĩa,20.954925,105.733581,"Phường Yên Nghĩa, Quận Hà Đông, Thành Phố Hà Nội, Hà Nội"
Thành phố Hà Nội,Quận Hà Đông,Phường Đồng Mai,20.9295925,105.7343194,"Phường Đồng Mai, Quận Hà Đông, Thành Phố Hà Nội, Hà Nội"
Thành phố Hà Nội,Quận Long Biên,Phường Bồ Đề,21.0376125,105.8722127,"Phường Bồ Đề, Quận Long Biên, Thành Phố Hà Nội, Hà Nội"
Thành phố Hà Nội,Quận Long Biên,Phường Cự Khối,21.010265,105.905712,"Phường Cự Khối, Quận Long Biên, Thành Phố Hà Nội, Hà Nội"
Thành phố Hà Nội,Quận Long Biên,Phường Gia Thụy,21.04991747624,105.885602296821,"Phường Gia Thụy, Quận Long Biên, Thành Phố Hà Nội, Hà Nội"
Thành phố Hà Nội,Quận Long Biên,Phường Giang Biên,21.060339,105.917836,"Phường Giang Biên, Quận Long Biên, Thành Phố Hà Nội, Hà Nội"
Thành phố Hà Nội,Quận Long Biên,Phường Long Biên,21.02277,105.8889395,"Phường Long Biên, Quận Long Biên, Thành Phố Hà Nội, Hà Nội"
Thành phố Hà Nội,Quận Long Biên,Phường Ngọc Thụy,21.058493,105.864636,"Phường Ngọc Thụy, Quận Long Biên, Thành Phố Hà Nội, Hà Nội"
Thành phố Hà Nội,Quận Long Biên,Phường Phúc Lợi,21.045396,105.929435,"Phường Phúc Lợi, Quận Long Biên, Thành Phố Hà Nội, Hà Nội"
Thành phố Hà Nội,Quận Long Biên,Phường Phúc Đồng,21.040895,105.897821,"Phường Phúc Đồng, Quận Long Biên, Thành Phố Hà Nội, Hà Nội"
Thành phố Hà Nội,Quận Long Biên,Phường Thượng Thanh,21.0588052,105.8866581,"Phường Thượng Thanh, Quận Long Biên, Thành Phố Hà Nội, Hà Nội"
Thành phố Hà Nội,Quận Long Biên,Phường Thạch Bàn,21.018836,105.911297,"Phường Thạch Bàn, Quận Long Biên, Thành Phố Hà Nội, Hà Nội"
Thành phố Hà Nội,Quận Long Biên,Phường Việt Hưng,21.057301,105.898522,"Phường Việt Hưng, Quận Long Biên, Thành Phố Hà Nội, Hà Nội"
Thành phố Hà Nội,Quận Long Biên,Phường Đức Giang,21.059967,105.893585,"Phường Đức Giang, Quận Long Biên, Thành Phố Hà Nội, Hà Nội"
Thành phố Hà Nội,Quận Nam Từ Liêm,Phường Mễ Trì,21.012253,105.775183,"Mễ Trì, Quận Nam Từ Liêm, Thành Phố Hà Nội, Hà Nội"
Thành phố Hà Nội,Quận Nam Từ Liêm,Phường Mỹ Đình 1,21.022099,105.773159,"Mỹ Đình 1, Quận Nam Từ Liêm, Thành Phố Hà Nội, Hà Nội"
Thành phố Hà Nội,Quận Nam Từ Liêm,Phường Mỹ Đình 2,21.025191,105.773732,"Mỹ Đình 2, Quận Nam Từ Liêm, Thành Phố Hà Nội, Hà Nội"
Thành phố Hà Nội,Quận Nam Từ Liêm,Phường Phú Đô,21.0109,105.765524,"Phú Đô, Quận Nam Từ Liêm, Thành Phố Hà Nội, Hà Nội"
Thành phố Hà Nội,Quận Nam Từ Liêm,Phường Trung Văn,20.9904562,105.7834073,"Trung Văn, Quận Nam Từ Liêm, Thành Phố Hà Nội, Hà Nội"
Thành phố Hà Nội,Quận Nam Từ Liêm,Phường Tây Mỗ,21.004935,105.748395,"Tây Mỗ, Quận Nam Từ Liêm, Thành Phố Hà Nội, Hà Nội"
Thành phố Hà Nội,Quận Nam Từ Liêm,Phường Đại Mỗ,20.99362,105.760495,"Đại Mỗ, Quận Nam Từ Liêm, Thành Phố Hà Nội, Hà Nội"
Thành phố Hà Nội,Quận Thanh Xuân,Phường Hạ Đình,20.991223,105.811539,"Phường Hạ Đình, Quận Thanh Xuân, Thành Phố Hà Nội, Hà Nội"
Thành phố Hà Nội,Quận Thanh Xuân,Phường Khương Trung,20.99657,105.822145,"Phường Khương Trung, Quận Thanh Xuân, Thành Phố Hà Nội, Hà Nội"
Thành phố Hà Nội,Quận Thanh Xuân,Phường Khương Đình,20.992579,105.814859,"Phường Khương Đình, Quận Thanh Xuân, Thành Phố Hà Nội, Hà Nội"
Thành phố Hà Nội,Quận Thanh Xuân,Phường Nhân Chính,21.002163,105.809861,"Phường Nhân Chính, Quận Thanh Xuân, Thành Phố Hà Nội, Hà Nội"
Thành phố Hà Nội,Quận Thanh Xuân,Phường Phương Liệt,20.995702,105.839974,"Phường Phương Liệt, Quận Thanh Xuân, Thành Phố Hà Nội, Hà Nội"
Thành phố Hà Nội,Quận Thanh Xuân,Phường Thanh Xuân Bắc,20.993338731866,105.798662734675,"Phường Thanh Xuân Bắc, Quận Thanh Xuân, Thành Phố Hà Nội, Hà Nội"
Thành phố Hà Nội,Quận Thanh Xuân,Phường Thanh Xuân Trung,20.996659,105.809557,"Phường Thanh Xuân Trung, Quận Thanh Xuân, Thành Phố Hà Nội, Hà Nội"
Thành phố Hà Nội,Quận Thanh Xuân,Phường Thượng Đình,21.001047,105.817724,"Phường Thượng Đình, Quận Thanh Xuân, Thành Phố Hà Nội, Hà Nội"
Thành phố Hà Nội,Quận Tây Hồ,Phường Nhật Tân,21.075762,105.822512,"Phường Nhật Tân, Quận Tây Hồ, Thành Phố Hà Nội, Hà Nội"
Thành phố Hà Nội,Quận Tây Hồ,Phường Phú Thượng,21.0891,105.805092,"Phường Phú Thượng, Quận Tây Hồ, Thành Phố Hà Nội, Hà Nội"
Thành phố Hà Nội,Quận Tây Hồ,Phường Quảng An,21.06026,105.825393,"Phường Quảng An, Quận Tây Hồ, Thành Phố Hà Nội, Hà Nội"
Thành phố Hà Nội,Quận Tây Hồ,Phường Thụy Khuê,21.043615,105.820132,"Phường Thụy Khuê, Quận Tây Hồ, Thành Phố Hà Nội, Hà Nội"
Thành phố Hà Nội,Quận Tây Hồ,Phường Tứ Liên,21.063486,105.830977,"Phường Tứ Liên, Quận Tây Hồ, Thành Phố Hà Nội, Hà Nội"
Thành phố Hà Nội,Quận Tây Hồ,Phường Xuân La,21.061137346387,105.80513270779,"Phường Xuân La, Quận Tây Hồ, Thành Phố Hà Nội, Hà Nội"
Thành phố Hà Nội,Quận Tây Hồ,Phường Yên Phụ,21.055151,105.83859,"Phường Yên Phụ, Quận Tây Hồ, Thành Phố Hà Nội, Hà Nội"
Thành phố Hà Nội,Quận Đống Đa,Phường Cát Linh,21.030755,105.831855,"Phường Cát Linh, Quận Đống Đa, Thành Phố Hà Nội, Hà Nội"
Thành phố Hà Nội,Quận Đống Đa,Phường Hàng Bột,21.022885276692,105.831427305457,"Phường Hàng Bột, Quận Đống Đa, Thành Phố Hà Nội, Hà Nội"
Thành phố Hà Nội,Quận Đống Đa,Phường Láng Hạ,21.012619,105.812483,"Phường Láng Hạ, Quận Đống Đa, Thành Phố Hà Nội, Hà Nội"
Thành phố Hà Nội,Quận Đống Đa,Phường Nam Đồng,21.0168724,105.8302642,"Phường Nam Đồng, Quận Đống Đa, Thành Phố Hà Nội, Hà Nội"
Thành phố Hà Nội,Quận Đống Đa,Phường Phương Liên Trung Tự,21.011843,105.837133,"Phường Phương Liên, Quận Đống Đa, Thành Phố Hà Nội, Hà Nội"
Thành phố Hà Nội,Quận Đống Đa,Phường Phương Mai,21.004113,105.837667,"Phường Phương Mai, Quận Đống Đa, Thành Phố Hà Nội, Hà Nội"
Thành phố Hà Nội,Quận Đống Đa,Phường Quang Trung,21.013364,105.826406,"Phường Quang Trung, Quận Đống Đa, Thành Phố Hà Nội, Hà Nội"
Thành phố Hà Nội,Quận Đống Đa,Phường Trung Liệt,21.012909,105.82196,"Phường Trung Liệt, Quận Đống Đa, Thành Phố Hà Nội, Hà Nội"
Thành phố Hà Nội,Quận Đống Đa,Phường Văn Miếu Quốc Tử Giám,21.0294206,105.8362338,Văn Miếu - Quốc Tử Giám
Thành phố Hà Nội,Quận Đống Đa,Phường Ô Chợ Dừa,21.0171181,105.823904,"Phường Ô Chợ Dừa, Quận Đống Đa, Thành Phố Hà Nội, Hà Nội"
Thành phố Hà Nội,Thị xã Sơn Tây,Phường Sơn Lộc,21.1169514,105.4954496,"Phường Sơn Lộc, Thị Xã Sơn Tây, Thành Phố Hà Nội, Hà Nội"
Thành phố Hà Nội,Thị xã Sơn Tây,Phường Trung Hưng,21.1296701,105.5028126,"Phường Trung Hưng, Thị Xã Sơn Tây, Thành Phố Hà Nội, Hà Nội"
Thành phố Hà Nội,Thị xã Sơn Tây,Xã Cổ Đông,21.0679,105.51681,"Xã Cổ Đông, Thị Xã Sơn Tây, Thành Phố Hà Nội, Hà Nội"
Thành phố Hà Nội,Thị xã Sơn Tây,Xã Sơn Đông,21.077136,105.508426,"Xã Sơn Đông, Thị Xã Sơn Tây, Thành Phố Hà Nội, Hà Nội"
Thành phố Hà Nội,Thị xã Sơn Tây,Xã Thanh Mỹ,21.1260844,105.4769567,"Xã Thanh Mỹ, Thị Xã Sơn Tây, Thành Phố Hà Nội, Hà Nội"
Thành phố Hải Phòng,Huyện An Lão,Thị trấn Trường Sơn,20.813541,106.598715,"Thị Trấn Trường Sơn, Huyện An Lão, Thành Phố Hải Phòng, Hải Phòng"
Thành phố Hải Phòng,Huyện An Lão,Xã Thái Sơn,20.792409,106.603082,"Xã Thái Sơn, Huyện An Lão, Thành Phố Hải Phòng, Hải Phòng"
Thành phố Hải Phòng,Huyện Kiến Thụy,Xã Kiến Hưng,20.751144,106.66984,"Huyện Kiến Thụy, Kiến Thụy, Thành Phố Hải Phòng, Hải Phòng"
Thành phố Hải Phòng,Huyện Kiến Thụy,Xã Đoàn Xá,20.70029,106.708978,"Xã Đoàn Xá, Huyện Kiến Thụy, Thành Phố Hải Phòng, Hải Phòng"
Thành phố Hải Phòng,Huyện Tiên Lãng,Xã Tân Minh,20.725168,106.554958,"Huyện Tiên Lãng, Tiên Lãng, Thành Phố Hải Phòng, Hải Phòng"
Thành phố Hải Phòng,Huyện Tiên Lãng,Xã Tự Cường,20.7703845,106.5313107,"Xã Tự Cường, Huyện Tiên Lãng, Thành Phố Hải Phòng, Hải Phòng"
Thành phố Hải Phòng,Huyện Vĩnh Bảo,Xã Hòa Bình,20.65656,106.549389,"Xã Hòa Bình, Huyện Vĩnh Bảo, Thành Phố Hải Phòng, Hải Phòng"
Thành phố Hải Phòng,Quận An Dương,Phường An Hải,20.880677392757,106.591550887736,"Huyện An Dương, Thành Phố Hải Phòng, Hải Phòng"
Thành phố Hải Phòng,Quận An Dương,Phường Lê Lợi,20.860498,106.596042,"Lê Lợi, An Dương, Thành Phố Hải Phòng, Hải Phòng"
Thành phố Hải Phòng,Quận An Dương,Phường Lê Thiện,20.927701,106.554277,"Lê Thiện, An Dương, Thành Phố Hải Phòng, Hải Phòng"
Thành phố Hải Phòng,Quận An Dương,Phường Tân Tiến,20.893889,106.580703,"Tân Tiến, An Dương, Thành Phố Hải Phòng, Hải Phòng"
Thành phố Hải Phòng,Quận An Dương,Phường Đồng Thái,20.8475251,106.6357819,"Đồng Thái, An Dương, Thành Phố Hải Phòng, Hải Phòng"
Thành phố Hải Phòng,Quận Dương Kinh,Phường Anh Dũng,20.801563370578,106.703609140088,"Phường Anh Dũng, Quận Dương Kinh, Thành Phố Hải Phòng, Hải Phòng"
Thành phố Hải Phòng,Quận Dương Kinh,Phường Hải Thành,20.772478,106.733763,"Phường Hải Thành, Quận Dương Kinh, Thành Phố Hải Phòng, Hải Phòng"
Thành phố Hải Phòng,Quận Dương Kinh,Phường Tân Thành,20.75137,106.754729,"Phường Tân Thành, Quận Dương Kinh, Thành Phố Hải Phòng, Hải Phòng"
Thành phố Hải Phòng,Quận Hải An,Phường Nam Hải,20.830291,106.735055,"Phường Nam Hải, Quận Hải An, Thành Phố Hải Phòng, Hải Phòng"
Thành phố Hải Phòng,Quận Hải An,Phường Đông Hải 2,20.848667,106.720553,"Phường Đông Hải 2, Quận Hải An, Thành Phố Hải Phòng, Hải Phòng"
Thành phố Hải Phòng,Quận Hồng Bàng,Phường An Hưng,20.858214,106.683848,"Quận Hồng Bàng, Hồng Bàng, Thành Phố Hải Phòng, Hải Phòng"
Thành phố Hải Phòng,Quận Hồng Bàng,Phường Đại Bản,20.858214,106.683848,"Quận Hồng Bàng, Hồng Bàng, Thành Phố Hải Phòng, Hải Phòng"
Thành phố Hải Phòng,Quận Kiến An,Phường Bắc Sơn,20.8205059,106.6304407,"Phường Bắc Sơn, Quận Kiến An, Thành Phố Hải Phòng, Hải Phòng"
Thành phố Hải Phòng,Quận Kiến An,Phường Nam Sơn,20.8088749,106.6398068,"Phường Nam Sơn, Quận Kiến An, Thành Phố Hải Phòng, Hải Phòng"
Thành phố Hải Phòng,Quận Kiến An,Phường Trần Thành Ngọ,20.808904200845,106.627627374606,"Phường Trần Thành Ngọ, Quận Kiến An, Thành Phố Hải Phòng, Hải Phòng"
Thành phố Hải Phòng,Quận Kiến An,Phường Văn Đẩu,20.8011985,106.6299677,"Phường Văn Đẩu, Quận Kiến An, Thành Phố Hải Phòng, Hải Phòng"
Thành phố Hải Phòng,Quận Kiến An,Phường Đồng Hòa,20.821088,106.653906,"Phường Đồng Hòa, Quận Kiến An, Thành Phố Hải Phòng, Hải Phòng"
Thành phố Hải Phòng,Quận Lê Chân,Phường An Biên,20.855089,106.680121,"Phường An Biên, Quận Lê Chân, Thành Phố Hải Phòng, Hải Phòng"
Thành phố Hải Phòng,Quận Lê Chân,Phường Trần Nguyên Hãn,20.848913,106.669144,"Phường Trần Nguyên Hãn, Quận Lê Chân, Thành Phố Hải Phòng, Hải Phòng"
Thành phố Hải Phòng,Quận Lê Chân,Phường Vĩnh Niệm,20.831684,106.676747,"Phường Vĩnh Niệm, Quận Lê Chân, Thành Phố Hải Phòng, Hải Phòng"
Thành phố Hải Phòng,Quận Ngô Quyền,Phường Cầu Đất,20.853734,106.684067,"Phường Cầu Đất, Quận Ngô Quyền, Thành Phố Hải Phòng, Hải Phòng"
Thành phố Hải Phòng,Quận Ngô Quyền,Phường Gia Viên,20.856933,106.690843,"Phường Gia Viên, Quận Ngô Quyền, Thành Phố Hải Phòng, Hải Phòng"
Thành phố Hải Phòng,Quận Ngô Quyền,Phường Lạch Tray,20.841512,106.6937,"Phường Lạch Tray, Quận Ngô Quyền, Thành Phố Hải Phòng, Hải Phòng"
Thành phố Hải Phòng,Quận Ngô Quyền,Phường Đông Khê,20.850444,106.701796,"Phường Đông Khê, Quận Ngô Quyền, Thành Phố Hải Phòng, Hải Phòng"
Thành phố Hải Phòng,Quận Đồ Sơn,Phường Ngọc Xuyên,20.728471839749,106.772590472699,"Phường Ngọc Xuyên, Quận Đồ Sơn, Thành Phố Hải Phòng, Hải Phòng"
Thành phố Hải Phòng,Quận Đồ Sơn,Phường Vạn Hương,20.715073,106.767784,"Phường Vạn Hương, Quận Đồ Sơn, Thành Phố Hải Phòng, Hải Phòng"
Thành phố Hải Phòng,Thành phố Thủy Nguyên,Phường An Lư,20.92763,106.697725,"An Lư, Thủy Nguyên, Thành Phố Hải Phòng, Hải Phòng"
Thành phố Hải Phòng,Thành phố Thủy Nguyên,Phường Hoa Động,20.891172,106.664173,"Hoa Động, Thủy Nguyên, Thành Phố Hải Phòng, Hải Phòng"
Thành phố Hải Phòng,Thành phố Thủy Nguyên,Phường Lê Hồng Phong,20.923765927288,106.636027897705,"Đường Hương Lộ T.Hương, Kiền Bái, Thủy Nguyên, Thành Phố Hải Phòng, Hải Phòng, 04335"
Thành phố Hải Phòng,Thành phố Thủy Nguyên,Phường Thủy Hà,20.915984,106.675312,"Thủy Nguyên, Thành Phố Hải Phòng, Hải Phòng"
Thành phố Hải Phòng,Thành phố Thủy Nguyên,Xã Liên Xuân,20.915984,106.675312,"Thủy Nguyên, Thành Phố Hải Phòng, Hải Phòng"
Thành phố Hải Phòng,Thành phố Thủy Nguyên,Xã Quang Trung,20.808741,106.531501,"Xã Quang Trung, An Lão, Thành Phố Hải Phòng, Hải Phòng"
Thành phố Hồ Chí Minh,Huyện Bình Chánh,Xã An Phú Tây,10.683602,106.605537,"Xã An Phú Tây, Huyện Bình Chánh, Thành Phố Hồ Chí Minh, Hồ Chí Minh"
Thành phố Hồ Chí Minh,Huyện Bình Chánh,Xã Phạm Văn Hai,10.775034,106.543433,"Xã Phạm Văn Hai, Huyện Bình Chánh, Thành Phố Hồ Chí Minh, Hồ Chí Minh"
Thành phố Hồ Chí Minh,Huyện Bình Chánh,Xã Tân Kiên,10.7144874,106.5929913,"Xã Tân Kiên, Huyện Bình Chánh, Thành Phố Hồ Chí Minh, Hồ Chí Minh"
Thành phố Hồ Chí Minh,Huyện Cần Giờ,Xã An Thới Đông,10.591107,106.790751,"Xã An Thới Đông, Huyện Cần Giờ, Thành Phố Hồ Chí Minh, Hồ Chí Minh"
Thành phố Hồ Chí Minh,Huyện Cần Giờ,Xã Thạnh An,10.4704894,106.9764027,"Xã Thạnh An, Huyện Cần Giờ, Thành Phố Hồ Chí Minh, Hồ Chí Minh"
Thành phố Hồ Chí Minh,Quận 1,Phường Cầu Ông Lãnh,10.765502,106.697096,"Phường Cầu Ông Lãnh, Quận 1, Thành Phố Hồ Chí Minh, Hồ Chí Minh"
Thành phố Hồ Chí Minh,Quận 1,Phường Nguyễn Thái Bình,10.768956,106.700338,"Phường Nguyễn Thái Bình, Quận 1, Thành Phố Hồ Chí Minh, Hồ Chí Minh"
Thành phố Hồ Chí Minh,Quận 1,Phường Đa Kao,10.788858,106.699782,"Phường Đa Kao, Quận 1, Thành Phố Hồ Chí Minh, Hồ Chí Minh"
Thành phố Hồ Chí Minh,Quận 10,Phường 14,10.7679655,106.6664828,"Phường 14, Quận 10, Thành Phố Hồ Chí Minh, Hồ Chí Minh"
Thành phố Hồ Chí Minh,Quận 11,Phường 8,10.760291,106.646321,"Phường 8, Quận 11, Thành Phố Hồ Chí Minh, Hồ Chí Minh"
Thành phố Hồ Chí Minh,Quận 3,Phường 4,10.773707420825,106.682873445166,"Phường 4, Quận 3, Thành Phố Hồ Chí Minh, Hồ Chí Minh"
Thành phố Hồ Chí Minh,Quận 4,Phường 15,10.7533911,106.7080608,"Phường 15, Quận 4, Thành Phố Hồ Chí Minh, Hồ Chí Minh"
Thành phố Hồ Chí Minh,Quận 4,Phường 2,10.755153,106.694494,"Phường 2, Quận 4, Thành Phố Hồ Chí Minh, Hồ Chí Minh"
Thành phố Hồ Chí Minh,Quận 4,Phường 4,10.7531624,106.7026719,"Phường 4, Quận 4, Thành Phố Hồ Chí Minh, Hồ Chí Minh"
Thành phố Hồ Chí Minh,Quận 7,Phường Phú Mỹ,10.707819520856,106.736824656524,"Phường Phú Mỹ, Quận 7, Thành Phố Hồ Chí Minh, Hồ Chí Minh"
Thành phố Hồ Chí Minh,Quận 7,Phường Tân Quy,10.744941,106.706454,"Phường Tân Quy, Quận 7, Thành Phố Hồ Chí Minh, Hồ Chí Minh"
Thành phố Hồ Chí Minh,Quận 8,Phường 16,10.712278,106.623645,"Phường 16, Quận 8, Thành Phố Hồ Chí Minh, Hồ Chí Minh"
Thành phố Hồ Chí Minh,Quận 8,Phường 5,10.738049768032,106.663119423671,"Phường 5, Quận 8, Thành Phố Hồ Chí Minh, Hồ Chí Minh"
Thành phố Hồ Chí Minh,Quận 8,Phường 7,10.709083,106.62385,"Phường 7, Quận 8, Thành Phố Hồ Chí Minh, Hồ Chí Minh"
Thành phố Hồ Chí Minh,Quận Bình Tân,Phường Bình Hưng Hòa A,10.7944798,106.610341,"Phường Bình Hưng Hòa A, Quận Bình Tân, Thành Phố Hồ Chí Minh, Hồ Chí Minh"
Thành phố Hồ Chí Minh,Quận Bình Tân,Phường Bình Trị Đông A,10.763783,106.604341,"Phường Bình Trị Đông A, Quận Bình Tân, Thành Phố Hồ Chí Minh, Hồ Chí Minh"
Thành phố Hồ Chí Minh,Quận Bình Tân,Phường Tân Tạo,10.761078,106.589638,"Phường Tân Tạo, Quận Bình Tân, Thành Phố Hồ Chí Minh, Hồ Chí Minh"
Thành phố Hồ Chí Minh,Quận Bình Tân,Phường Tân Tạo A,10.756763,106.587033,"Phường Tân Tạo A, Quận Bình Tân, Thành Phố Hồ Chí Minh, Hồ Chí Minh"
Thành phố Hồ Chí Minh,Quận Phú Nhuận,Phường 15,10.796376,106.679354,"Phường 15, Quận Phú Nhuận, Thành Phố Hồ Chí Minh, Hồ Chí Minh"
Thành phố Hồ Chí Minh,Quận Tân Bình,Phường 15,10.81844,106.631461,"Phường 15, Quận Tân Bình, Thành Phố Hồ Chí Minh, Hồ Chí Minh"
Thành phố Hồ Chí Minh,Quận Tân Phú,Phường Sơn Kỳ,10.803185,106.622105,"Phường Sơn Kỳ, Quận Tân Phú, Thành Phố Hồ Chí Minh, Hồ Chí Minh"
Thành phố Hồ Chí Minh,Quận Tân Phú,Phường Tân Quý,10.796856,106.619821,"Phường Tân Quý, Quận Tân Phú, Thành Phố Hồ Chí Minh, Hồ Chí Minh"
Thành phố Hồ Chí Minh,Quận Tân Phú,Phường Tân Thành,10.792242,106.633374,"Phường Tân Thành, Quận Tân Phú, Thành Phố Hồ Chí Minh, Hồ Chí Minh"
Thành phố Hồ Chí Minh,Quận Tân Phú,Phường Tân Thới Hòa,10.764921,106.632332,"Phường Tân Thới Hòa, Quận Tân Phú, Thành Phố Hồ Chí Minh, Hồ Chí Minh"
Thành phố Hồ Chí Minh,Thành phố Thủ Đức,Phường An Phú,10.7832849,106.6244152,"Phường Phú Thạnh, Tân Phú, Hồ Chí Minh"
Thành phố Hồ Chí Minh,Thành phố Thủ Đức,Phường Linh Tây,10.85464,106.755123,"Phường Linh Tây, Thủ Đức, Thành Phố Hồ Chí Minh, Hồ Chí Minh"
Thành phố Hồ Chí Minh,Thành phố Thủ Đức,Phường Linh Đông,10.855063,106.747535,"Phường Linh Đông, Thủ Đức, Thành Phố Hồ Chí Minh, Hồ Chí Minh"
Thành phố Hồ Chí Minh,Thành phố Thủ Đức,Phường Long Thạnh Mỹ,10.84194,106.823942,"Phường Long Thạnh Mỹ, Thủ Đức, Thành Phố Hồ Chí Minh, Hồ Chí Minh"
Thành phố Đà Nẵng,Huyện Hòa Vang,Xã Hòa Liên,16.096387,108.09587,"Xã Hòa Liên, Huyện Hòa Vang, Thành Phố Đà Nẵng, Đà Nẵng"
Tỉnh An Giang,Huyện An Phú,Xã Phú Hội,10.8123627,105.0775821,"Xã Phú Hội, Huyện An Phú, An Giang"
Tỉnh An Giang,Huyện An Phú,Xã Phước Hưng,10.854441,105.078932,"Xã Phước Hưng, Huyện An Phú, An Giang"
Tỉnh An Giang,Huyện Châu Thành,Xã Bình Thạnh,10.467032,105.349011,"Xã Bình Thạnh, Huyện Châu Thành, An Giang"
Tỉnh An Giang,Huyện Châu Thành,Xã Vĩnh Thành,10.346985,105.33539,"Xã Vĩnh Thành, Huyện Châu Thành, An Giang"
Tỉnh An Giang,Huyện Phú Tân,Xã Phú Thành,10.720675,105.279527,"Xã Phú Thạnh, Huyện Phú Tân, An Giang"
Tỉnh An Giang,Huyện Phú Tân,Xã Phú Thạnh,10.720675,105.279527,"Xã Phú Thạnh, Huyện Phú Tân, An Giang"
Tỉnh An Giang,Huyện Thoại Sơn,Xã Bình Thành,10.206567,105.221767,"Xã Bình Thành, Huyện Thoại Sơn, An Giang"
Tỉnh An Giang,Thành phố Châu Đốc,Xã Vĩnh Châu,10.65003,105.10177,"Xã Vĩnh Châu, An Giang"
Tỉnh An Giang,Thị xã Tân Châu,Xã Tân Thạnh,10.825884,105.183809,"Xã Tân Thạnh, Thị Xã Tân Châu, An Giang"
Tỉnh Bình Dương,Huyện Bàu Bàng,Thị trấn Lai Uyên,11.26308,106.61396,"Huyện Bàu Bàng, Bình Dương"
Tỉnh Bình Dương,Huyện Bắc Tân Uyên,Xã Tân Mỹ,11.055199,106.834954,"Xã Tân Mỹ, Bắc Tân Uyên, Bình Dương"
Tỉnh Bình Dương,Huyện Dầu Tiếng,Xã An Lập,11.237672,106.486281,"Xã An Lập, Huyện Dầu Tiếng, Bình Dương"
Tỉnh Bình Dương,Huyện Dầu Tiếng,Xã Minh Thạnh,11.430549,106.50434,"Xã Minh Thạnh, Huyện Dầu Tiếng, Bình Dương"
Tỉnh Bình Dương,Huyện Dầu Tiếng,Xã Minh Tân,11.416869,106.454917,"Xã Minh Tân, Huyện Dầu Tiếng, Bình Dương"
Tỉnh Bình Dương,Huyện Dầu Tiếng,Xã Thanh An,11.203284,106.399225,"Xã Thanh An, Huyện Dầu Tiếng, Bình Dương"
Tỉnh Bình Dương,Huyện Dầu Tiếng,Xã Thanh Tuyền,11.18623,106.46323,"Xã Thanh Tuyền, Bình Dương"
Tỉnh Bình Dương,Huyện Dầu Tiếng,Xã Định Hiệp,11.30699,106.421,"Xã Định Hiệp, Bình Dương"
Tỉnh Bình Dương,Huyện Phú Giáo,Xã Tam Lập,11.27329,106.87589,"Xã Tam Lập, Bình Dương"
Tỉnh Bình Dương,Thành phố Bến Cát,Phường Mỹ Phước,11.1442,106.6088,"Phường Mỹ Phước, Bình Dương"
Tỉnh Bình Dương,Thành phố Dĩ An,Phường Tân Đông Hiệp,10.92117,106.76836,"Phường Tân Đông Hiệp, Bình Dương"
Tỉnh Bình Dương,Thành phố Thuận An,Phường Bình Chuẩn,10.98125,106.72196,"Phường Bình Chuẩn, Bình Dương"
Tỉnh Bình Dương,Thành phố Thuận An,Phường Vĩnh Phú,10.87774,106.70411,"Phường Vĩnh Phú, Bình Dương"
Tỉnh Bình Dương,Thành phố Thủ Dầu Một,Phường Chánh Mỹ,10.99066,106.63343,"Phường Chánh Mỹ, Bình Dương"
Tỉnh Bình Dương,Thành phố Thủ Dầu Một,Phường Hiệp An,11.03152,106.63325,"Phường Hiệp An, Bình Dương"
Tỉnh Bình Dương,Thành phố Thủ Dầu Một,Phường Hiệp Thành,11.03152,106.63325,"Phường Hiệp An, Bình Dương"
Tỉnh Bình Dương,Thành phố Tân Uyên,Phường Thái Hòa,10.98954,106.75692,"Phường Thái Hòa, Bình Dương"
Tỉnh Bình Phước,Huyện Bù Đốp,Xã Phước Thiện,12.02557,106.89554,"Xã Phước Thiện, Bình Phước"
Tỉnh Bình Phước,Huyện Lộc Ninh,Xã Lộc Thành,11.79358,106.49062,"Xã Lộc Thạnh, Bình Phước"
Tỉnh Bình Phước,Huyện Lộc Ninh,Xã Lộc Thạnh,11.79358,106.49062,"Xã Lộc Thạnh, Bình Phước"
Tỉnh Bình Phước,Thị xã Bình Long,Xã Thanh Phú,11.702717,106.587642,"Xã Thanh Phú, Thị Xã Bình Long, Bình Phước"
Tỉnh Bình Thuận,Huyện Bắc Bình,Xã Hòa Thắng,11.0728896,108.4051662,"Xã Hòa Thắng, Hòa Thắng, Huyện Bắc Bình, Bình Thuận"
Tỉnh Bình Thuận,Huyện Hàm Thuận Nam,Xã Tân Thành,10.7355705,107.9380455,"Xã Tân Thành, Tân Thành, Huyện Hàm Thuận Nam, Bình Thuận"
Tỉnh Bình Thuận,Huyện Tuy Phong,Xã Phong Phú,11.2725359,108.6516737,"Xã Phong Phú, Phong Phú, Huyện Tuy Phong, Bình Thuận"
Tỉnh Bình Định,Huyện An Lão,Xã An Nghĩa,14.4898408,108.8446257,"Xã An Nghĩa, Huyện An Lão, Bình Định"
Tỉnh Bình Định,Huyện Hoài Ân,Xã Ân Nghĩa,14.282402,108.88819,"Xã Ân Nghĩa, Huyện Hoài Ân, Bình Định"
Tỉnh Bình Định,Huyện Hoài Ân,Xã Ân Thạnh,14.395243,108.969075,"Xã Ân Thạnh, Huyện Hoài Ân, Bình Định"
Tỉnh Bình Định,Huyện Vân Canh,Xã Canh Hiệp,13.70463,108.98253,"Xã Canh Hiệp, Bình Định"
Tỉnh Bình Định,Huyện Vân Canh,Xã Canh Liên,13.70075,108.89526,"Xã Canh Liên, Bình Định"
Tỉnh Bắc Giang,Huyện Hiệp Hòa,Xã Đồng Tiến,21.33333,105.96667,"Huyện Hiệp Hòa, Bắc Giang"
Tỉnh Bắc Giang,Huyện Yên Thế,Xã Đồng Tiến,21.549456,106.121901,"Xã Đồng Tiến, Huyện Yên Thế, Bắc Giang"
Tỉnh Bắc Kạn,Huyện Na Rì,Xã Văn Lang,22.17883,106.11221,"Huyện Na Rì, Bắc Kạn"
Tỉnh Bến Tre,Huyện Ba Tri,Xã Tân Hưng,10.063404,106.490564,"Xã Tân Hưng, Tân Hưng, Huyện Ba Tri, Bến Tre"
Tỉnh Bến Tre,Huyện Bình Đại,Xã Long Hòa,10.2620533,106.4534783,"Xã Long Hòa, Long Hòa, Huyện Bình Đại, Bến Tre"
Tỉnh Bến Tre,Huyện Giồng Trôm,Xã Bình Thành,10.145749,106.521616,"Xã Bình Thành, Bình Thành, Huyện Giồng Trôm, Bến Tre"
Tỉnh Bến Tre,Huyện Giồng Trôm,Xã Tân Thanh,10.131459,106.495568,"Xã Tân Thạnh, Tân Thạnh, Huyện Giồng Trôm, Bến Tre"
Tỉnh Bến Tre,Huyện Mỏ Cày Bắc,Xã Hòa Lộc,10.1670678,106.330967,"Xã Hòa Lộc, Hòa Lộc, Huyện Mỏ Cày Bắc, Bến Tre"
Tỉnh Bến Tre,Huyện Thạnh Phú,Xã Bình Thạnh,9.931894,106.515933,"Xã Bình Thạnh, Bình Thạnh, Huyện Thạnh Phú, Bến Tre"
Tỉnh Cà Mau,Huyện Cái Nước,Xã Hòa Mỹ,8.988361,105.01497,"Xã Hòa Mỹ, Huyện Cái Nước, Cà Mau"
Tỉnh Cà Mau,Huyện Cái Nước,Xã Tân Hưng Đông,8.96584,105.00252,"Xã Tân Hưng Đông, Cà Mau"
Tỉnh Cà Mau,Huyện Cái Nước,Xã Đông Hưng,8.968853,105.108934,"Xã Đông Hưng, Huyện Cái Nước, Cà Mau"
Tỉnh Cà Mau,Huyện Cái Nước,Xã Đông Thới,8.91955,105.07313,"Xã Đông Thới, Cà Mau"
Tỉnh Cà Mau,Huyện Ngọc Hiển,Xã Tân Ân,8.657124,105.089373,"Xã Tân Ân, Huyện Ngọc Hiển, Cà Mau"
Tỉnh Cà Mau,Huyện Ngọc Hiển,Xã Viên An,8.625046,104.862612,"Xã Viên An, Huyện Ngọc Hiển, Cà Mau"
Tỉnh Cà Mau,Huyện Năm Căn,Thị Trấn Năm Căn,8.77459,104.98756,"Thị Trấn Năm Căn, Cà Mau"
Tỉnh Cà Mau,Huyện Năm Căn,Xã Hàm Rồng,8.83023,105.03946,"Xã Hàm Rồng, Cà Mau"
Tỉnh Cà Mau,Huyện Trần Văn Thời,Xã Lợi An,9.12061,105.05209,"Xã Lợi An, Cà Mau"
Tỉnh Cà Mau,Huyện Trần Văn Thời,Xã Phong Điền,9.01961,104.86505,"Xã Phong Điền, Cà Mau"
Tỉnh Cà Mau,Huyện Trần Văn Thời,Xã Trần Hợi,9.17672,104.93566,"Xã Trần Hợi, Cà Mau"
Tỉnh Cà Mau,Huyện U Minh,Xã Khánh Lâm,9.33244,104.89451,"Xã Khánh Lâm, Cà Mau"
Tỉnh Cà Mau,Huyện U Minh,Xã Khánh Thuận,9.48441,104.9581,"Xã Khánh Thuận, Cà Mau"
Tỉnh Cà Mau,Huyện U Minh,Xã Nguyễn Phích,9.35301,104.99738,"Xã Nguyễn Phích, Cà Mau"
Tỉnh Cà Mau,Huyện Đầm Dơi,Xã Tạ An Khương,9.05728,105.19938,"Xã Tạ An Khương, Cà Mau"
Tỉnh Cà Mau,Thành phố Cà Mau,Phường 6,9.1643595,105.2199098,Thánh Thất Phường 6 Thành Phố Cà Mau
Tỉnh Cà Mau,Thành phố Cà Mau,Phường 7,9.173671,105.148736,"Phường 7, Thành Phố Cà Mau, Cà Mau"
Tỉnh Cà Mau,Thành phố Cà Mau,Xã Tân Thành,9.192822,105.209906,"Xã Tân Thành, Thành Phố Cà Mau, Cà Mau"
Tỉnh Cà Mau,Thành phố Cà Mau,Xã Tắc Vân,9.16691,105.26522,"Xã Tắc Vân, Cà Mau"
Tỉnh Cà Mau,Thành phố Cà Mau,Xã Định Bình,9.1388103,105.2325374,"Xã Định Bình, Thành Phố Cà Mau, Cà Mau"
Tỉnh Gia Lai,Huyện Chư Prông,Xã Ia Bang,13.73985,107.98465,"Xã Ia Bang, Gia Lai"
Tỉnh Gia Lai,Huyện Chư Prông,Xã Ia Băng,13.73985,107.98465,"Xã Ia Bang, Gia Lai"
Tỉnh Gia Lai,Huyện Chư Prông,Xã Ia O,13.715064,107.81349,"Xã Ia Ô, Huyện Chư Prông, Gia Lai"
Tỉnh Gia Lai,Huyện Đăk Pơ,Xã An Thành,13.96433,108.51087,"Xã An Thành, Gia Lai"
Tỉnh Gia Lai,Huyện Đăk Đoa,Xã Ia Băng,13.894863,108.049531,"Xã Ia Băng, Huyện Đăk Đoa, Gia Lai"
Tỉnh Hà Giang,Huyện Bắc Mê,Xã Yên Định,22.811785,105.126157,"Xã Yên Định, Huyện Bắc Mê, Hà Giang"
Tỉnh Hà Giang,Huyện Bắc Quang,Xã Tân Thành,22.533163,104.890538,"Xã Tân Thành, Huyện Bắc Quang, Hà Giang"
Tỉnh Hà Giang,Huyện Vị Xuyên,Xã Việt Lâm,22.67597,104.92987,"Xã Việt Lâm, Huyện Vị Xuyên, Hà Giang"
Tỉnh Hà Giang,Thành phố Hà Giang,Phường Quang Trung,22.845332,105.002251,"Phường Quang Trung, Thành Phố Hà Giang, Hà Giang"
Tỉnh Hà Nam,Thành phố Phủ Lý,Phường Quang Trung,20.558500031749,105.919928761215,"Phường Quang Trung, Thành Phố Phủ Lý, Hà Nam"
Tỉnh Hà Nam,Thị xã Duy Tiên,Phường Hoàng Đông,20.623068,105.922424,"Hoàng Đông, Duy Tiên, Hà Nam"
Tỉnh Hà Nam,Thị xã Duy Tiên,Phường Hòa Mạc,20.6383985,105.9845715,"Hòa Mạc, Duy Tiên, Hà Nam"
Tỉnh Hà Nam,Thị xã Duy Tiên,Phường Tiên Nội,20.628826,105.946626,"Tiên Nội, Duy Tiên, Hà Nam"
Tỉnh Hà Nam,Thị xã Duy Tiên,Xã Tiên Ngoại,20.60428,105.95508,"Xã Tiên Ngoại, Hà Nam"
Tỉnh Hà Tĩnh,Thành phố Hà Tĩnh,Phường Đại Nài,18.32277,105.91002,"Phường Đại Nài, Hà Tĩnh"
Tỉnh Hà Tĩnh,Thị xã Kỳ Anh,Xã Kỳ Lợi,18.09327,106.40507,"Xã Kỳ Lợi, Hà Tĩnh"
Tỉnh Hòa Bình,Huyện Kim Bôi,Xã Mỵ Hòa,20.576683,105.648148,"Xã Mỵ Hòa, Huyện Kim Bôi, Hòa Bình"
Tỉnh Hòa Bình,Huyện Kim Bôi,Xã Vĩnh Tiến,20.734054,105.452341,"Xã Vĩnh Tiến, Huyện Kim Bôi, Hòa Bình"
Tỉnh Hòa Bình,Huyện Lương Sơn,Xã Cao Sơn,20.8765,105.51219,"Huyện Lương Sơn, Hòa Bình"
Tỉnh Hòa Bình,Huyện Lương Sơn,Xã Liên Sơn,20.839977,105.5996014,"Liên Sơn, Huyện Lương Sơn, Hòa Bình"
Tỉnh Hòa Bình,Huyện Lương Sơn,Xã Lâm Sơn,20.892314,105.494087,"Xã Lâm Sơn, Huyện Lương Sơn, Hòa Bình"
Tỉnh Hòa Bình,Huyện Lương Sơn,Xã Thanh Sơn,20.8765,105.51219,"Huyện Lương Sơn, Hòa Bình"
Tỉnh Hòa Bình,Huyện Lạc Sơn,Xã Văn Sơn,20.516373,105.397396,"Xã Văn Sơn, Huyện Lạc Sơn, Hòa Bình"
Tỉnh Hòa Bình,Huyện Mai Châu,Xã Thành Sơn,20.66296,105.03145,"Huyện Mai Châu, Hòa Bình"
Tỉnh Hòa Bình,Huyện Mai Châu,Xã Đồng Tân,20.66296,105.03145,"Huyện Mai Châu, Hòa Bình"
Tỉnh Hòa Bình,Huyện Tân Lạc,Xã Mỹ Hòa,20.643508,105.22441,"Xã Mỹ Hòa, Huyện Tân Lạc, Hòa Bình"
Tỉnh Hòa Bình,Huyện Tân Lạc,Xã Vân Sơn,20.60557,105.23399,"Huyện Tân Lạc, Hòa Bình"
Tỉnh Hòa Bình,Huyện Đà Bắc,Xã Vầy Nưa,20.80439,105.20583,"Xã Vầy Nưa, Hòa Bình"
Tỉnh Hưng Yên,Huyện Kim Động,Xã Ngọc Thanh,20.719218,106.041947,"Xã Ngọc Thanh, Huyện Kim Động, Hưng Yên"
Tỉnh Hưng Yên,Huyện Văn Lâm,Xã Lạc Đạo,20.98533,106.01755,"Xã Lạc Đạo, Hưng Yên"
Tỉnh Hưng Yên,Huyện Văn Lâm,Xã Việt Hưng,20.98761,106.0927,"Xã Việt Hưng, Huyện Văn Lâm, Hưng Yên"
Tỉnh Hưng Yên,Huyện Văn Lâm,Xã Đình Dù,20.96684,106.00339,"Xã Đình Dù, Hưng Yên"
Tỉnh Hải Dương,Huyện Bình Giang,Xã Thái Dương,20.843864,106.140593,"Xã Thái Dương, Huyện Bình Giang, Hải Dương"
Tỉnh Hải Dương,Huyện Bình Giang,Xã Thái Hòa,20.84333,106.158967,"Xã Thái Hòa, Huyện Bình Giang, Hải Dương"
Tỉnh Hải Dương,Huyện Bình Giang,Xã Thái Minh,20.87586,106.19138,"Huyện Bình Giang, Hải Dương"
Tỉnh Hải Dương,Huyện Bình Giang,Xã Thúc Kháng,20.87671,106.15306,"Xã Thúc Kháng, Hải Dương"
Tỉnh Hải Dương,Huyện Bình Giang,Xã Tân Hồng,20.87382,106.17138,"Xã Tân Hồng, Hải Dương"
Tỉnh Hải Dương,Huyện Bình Giang,Xã Vĩnh Hồng,20.90191,106.1795,"Xã Vĩnh Hồng, Hải Dương"
Tỉnh Hải Dương,Huyện Cẩm Giàng,Thị trấn Lai Cách,20.935900997926,106.252845279937,"Thị Trấn Lai Cách, Huyện Cẩm Giàng, Hải Dương"
Tỉnh Hải Dương,Huyện Cẩm Giàng,Xã Phúc Điền,20.95,106.21667,"Huyện Cẩm Giàng, Hải Dương"
Tỉnh Hải Dương,Huyện Gia Lộc,Thị trấn Gia Lộc,20.86634465715,106.293905996297,"Thị Trấn Gia Lộc, Huyện Gia Lộc, Hải Dương"
Tỉnh Hải Dương,Huyện Gia Lộc,Xã Gia Phúc,20.85164,106.2913,"Huyện Gia Lộc, Hải Dương"
Tỉnh Hải Dương,Huyện Gia Lộc,Xã Lê Lợi,20.852978,106.270193,"Xã Lê Lợi, Huyện Gia Lộc, Hải Dương"
Tỉnh Hải Dương,Huyện Gia Lộc,Xã Quang Đức,20.85164,106.2913,"Huyện Gia Lộc, Hải Dương"
Tỉnh Hải Dương,Huyện Gia Lộc,Xã Thống Kênh,20.80917,106.30809,"Xã Thống Kênh, Hải Dương"
Tỉnh Hải Dương,Huyện Gia Lộc,Xã Thống Nhất,20.898363,106.261696,"Xã Thống Nhất, Huyện Gia Lộc, Hải Dương"
Tỉnh Hải Dương,Huyện Gia Lộc,Xã Yết Kiêu,20.87234,106.25583,"Xã Yết Kiêu, Hải Dương"
Tỉnh Hải Dương,Huyện Gia Lộc,Xã Đoàn Thượng,20.81993,106.28319,"Xã Đoàn Thượng, Hải Dương"
Tỉnh Hải Dương,Huyện Kim Thành,Xã Hòa Bình,20.93814,106.5099,"Huyện Kim Thành, Hải Dương"
Tỉnh Hải Dương,Huyện Kim Thành,Xã Tuấn Việt,20.93814,106.5099,"Huyện Kim Thành, Hải Dương"
Tỉnh Hải Dương,Huyện Kim Thành,Xã Vũ Dũng,20.93814,106.5099,"Huyện Kim Thành, Hải Dương"
Tỉnh Hải Dương,Huyện Nam Sách,Xã Cộng Hòa,21.011083,106.389229,"Xã Cộng Hòa, Huyện Nam Sách, Hải Dương"
Tỉnh Hải Dương,Huyện Thanh Hà,Xã Cẩm Việt,20.89582,106.43382,"Huyện Thanh Hà, Hải Dương"
Tỉnh Hải Dương,Huyện Thanh Hà,Xã Hồng Lạc,20.960084,106.404609,"Xã Hồng Lạc, Huyện Thanh Hà, Hải Dương"
Tỉnh Hải Dương,Huyện Thanh Hà,Xã Thanh An,20.937971,106.445518,"Xã Thanh An, Huyện Thanh Hà, Hải Dương"
Tỉnh Hải Dương,Huyện Thanh Hà,Xã Thanh Hải,20.888406,106.402592,"Xã Thanh Hải, Huyện Thanh Hà, Hải Dương"
Tỉnh Hải Dương,Huyện Thanh Miện,Thị trấn Thanh Miện,20.783318374023,106.251603337026,"Thị Trấn Thanh Miện, Huyện Thanh Miện, Hải Dương"
Tỉnh Hải Dương,Huyện Thanh Miện,Xã Thanh Tùng,20.835176,106.222576,"Xã Thanh Tùng, Huyện Thanh Miện, Hải Dương"
Tỉnh Hải Dương,Huyện Thanh Miện,Xã Tứ Cường,20.774501,106.235592,"Xã Tứ Cường, Huyện Thanh Miện, Hải Dương"
Tỉnh Hải Dương,Huyện Thanh Miện,Xã Đoàn Tùng,20.82191,106.21778,"Xã Đoàn Tùng, Hải Dương"
Tỉnh Hải Dương,Huyện Tứ Kỳ,Xã Hưng Đạo,20.855271,106.369826,"Xã Hưng Đạo, Huyện Tứ Kỳ, Hải Dương"
Tỉnh Hải Dương,Huyện Tứ Kỳ,Xã Tiên Động,20.76475,106.44766,"Xã Tiên Động, Hải Dương"
Tỉnh Hải Dương,Thành phố Chí Linh,Phường Cộng Hòa,21.124446,106.395082,"Phường Cộng Hòa, Chí Linh, Hải Dương"
Tỉnh Hải Dương,Thành phố Chí Linh,Phường Văn Đức,21.06667,106.31667,"Chí Linh, Hải Dương"
Tỉnh Hải Dương,Thành phố Hải Dương,Phường Trần Phú,20.937013,106.331111,"Phường Trần Phú, Thành Phố Hải Dương, Hải Dương"
Tỉnh Hải Dương,Thành phố Hải Dương,Phường Tứ Minh,20.92522,106.28027,"Phường Tứ Minh, Hải Dương"
Tỉnh Hải Dương,Thị xã Kinh Môn,Xã Thượng Quận,20.99423,106.49008,"Xã Thượng Quận, Hải Dương"
Tỉnh Hậu Giang,Huyện Châu Thành,Xã Phú Hữu,9.903729,105.830161,"Xã Phú Hữu, Huyện Châu Thành, Hậu Giang"
Tỉnh Hậu Giang,Huyện Châu Thành,Xã Phú Tân,9.923954,105.851224,"Xã Phú Tân, Huyện Châu Thành, Hậu Giang"
Tỉnh Hậu Giang,Huyện Long Mỹ,Xã Thuận Hưng,9.654528,105.539352,"Xã Thuận Hưng, Huyện Long Mỹ, Hậu Giang"
Tỉnh Hậu Giang,Huyện Phụng Hiệp,Xã Tân Long,9.880363,105.767501,"Xã Tân Long, Huyện Phụng Hiệp, Hậu Giang"
Tỉnh Hậu Giang,Thành phố Ngã Bảy,Xã Tân Thành,9.860297,105.833864,"Xã Tân Thành, Ngã Bảy, Hậu Giang"
Tỉnh Hậu Giang,Thị xã Long Mỹ,Xã Long Bình,9.7437391,105.5896486,"Long Bình, Thị Xã Long Mỹ, Hậu Giang"
Tỉnh Hậu Giang,Thị xã Long Mỹ,Xã Long Phú,9.631793,105.621577,"Xã Long Phú, Thị Xã Long Mỹ, Hậu Giang"
Tỉnh Khánh Hòa,Huyện Cam Lâm,Xã Cam An Bắc,12.01227,109.09135,"Xã Cam An Bắc, Khánh Hòa"
Tỉnh Khánh Hòa,Huyện Cam Lâm,Xã Cam An Nam,11.98693,109.12347,"Xã Cam An Nam, Khánh Hòa"
Tỉnh Khánh Hòa,Huyện Cam Lâm,Xã Cam Hiệp Bắc,12.06331,109.10599,"Xã Cam Hiệp Bắc, Khánh Hòa"
Tỉnh Khánh Hòa,Huyện Cam Lâm,Xã Cam Hiệp Nam,12.03618,109.10991,"Xã Cam Hiệp Nam, Khánh Hòa"
Tỉnh Khánh Hòa,Huyện Cam Lâm,Xã Cam Hòa,12.11756,109.14311,"Xã Cam Hòa, Khánh Hòa"
Tỉnh Khánh Hòa,Huyện Cam Lâm,Xã Cam Tân,12.1197,109.09242,"Xã Cam Tân, Khánh Hòa"
Tỉnh Khánh Hòa,Huyện Cam Lâm,Xã Suối Tân,12.12862,109.05281,"Xã Suối Tân, Khánh Hòa"
Tỉnh Kiên Giang,Huyện An Minh,Xã Tân Thạnh,9.736912,104.880922,"Xã Tân Thạnh, Huyện An Minh, Kiên Giang"
Tỉnh Kiên Giang,Huyện Giồng Riềng,Xã Vĩnh Thạnh,9.8510718,105.3076651,"Xã Vĩnh Thạnh, Huyện Giồng Riềng, Kiên Giang"
Tỉnh Kon Tum,Huyện Đắk Hà,Xã Đăk Long,14.44149,107.94363,"Xã Đắk La, Kon Tum"
Tỉnh Lai Châu,Huyện Nậm Nhùn,Xã Nậm Chà,22.2045,103.01127,"Huyện Nậm Nhùn, Lai Châu"
Tỉnh Lai Châu,Huyện Sìn Hồ,Xã Nậm Cha,22.22257,103.38972,"Xã Nậm Cha, Lai Châu"
Tỉnh Long An,Huyện Bến Lức,Xã Thanh Phú,10.6641119,106.5124683,"Xã Thạnh Phú, Huyện Bến Lức, Long An"
Tỉnh Long An,Huyện Mộc Hóa,Xã Bình Thạnh,10.788919,106.051488,"Xã Bình Thạnh, Huyện Mộc Hóa, Long An"
Tỉnh Long An,Huyện Thạnh Hóa,Xã Thạnh Phú,10.689792,106.145176,"Xã Thạnh Phú, Huyện Thạnh Hóa, Long An"
Tỉnh Long An,Huyện Thạnh Hóa,Xã Thạnh Phước,10.692726,106.103609,"Xã Thạnh Phước, Huyện Thạnh Hóa, Long An"
Tỉnh Long An,Huyện Thủ Thừa,Thị trấn Thủ Thừa,10.612049500698,106.400775620007,"Thị Trấn Thủ Thừa, Huyện Thủ Thừa, Long An"
Tỉnh Long An,Huyện Thủ Thừa,Xã Bình Thạnh,10.583694,106.410295,"Xã Bình Thạnh, Huyện Thủ Thừa, Long An"
Tỉnh Long An,Huyện Thủ Thừa,Xã Nhị Thành,10.605982,106.424282,"Xã Nhị Thành, Huyện Thủ Thừa, Long An"
Tỉnh Long An,Huyện Thủ Thừa,Xã Tân Thành,10.632946,106.395164,"Xã Tân Thành, Huyện Thủ Thừa, Long An"
Tỉnh Long An,Huyện Tân Thạnh,Xã Bắc Hòa,10.69024,105.90248,"Xã Bắc Hòa, Long An"
Tỉnh Long An,Huyện Vĩnh Hưng,Xã Khánh Hưng,10.9485,105.698822,"Xã Khánh Hưng, Huyện Vĩnh Hưng, Long An"
Tỉnh Long An,Huyện Vĩnh Hưng,Xã Thái Bình Trung,10.91019,105.83398,"Xã Thái Bình Trung, Long An"
Tỉnh Long An,Huyện Vĩnh Hưng,Xã Thái Trị,10.95719,105.79852,"Xã Thái Trị, Long An"
Tỉnh Long An,Huyện Vĩnh Hưng,Xã Vĩnh Bình,10.872801,105.811313,"Xã Vĩnh Bình, Huyện Vĩnh Hưng, Long An"
Tỉnh Long An,Huyện Vĩnh Hưng,Xã Vĩnh Thuận,10.869557,105.780336,"Xã Vĩnh Thuận, Huyện Vĩnh Hưng, Long An"
Tỉnh Long An,Huyện Vĩnh Hưng,Xã Vĩnh Trị,10.92421,105.75028,"Xã Vĩnh Trị, Long An"
Tỉnh Long An,Huyện Đức Hòa,Xã Đức Hòa Thượng,10.86067,106.4453,"Xã Đức Hòa Thượng, Long An"
Tỉnh Long An,Thành phố Tân An,Phường 4,10.530036,106.395737,"Phường 4, Thành Phố Tân An, Long An"
Tỉnh Lào Cai,Huyện Mường Khương,Xã La Pan Tẩn,22.58006,104.14091,"Xã La Pan Tẩn, Lào Cai"
Tỉnh Lào Cai,Huyện Mường Khương,Xã Nậm Chảy,22.69567,104.05286,"Xã Nậm Chảy, Lào Cai"
Tỉnh Lào Cai,Huyện Văn Bàn,Xã Nậm Chày,22.11273,104.061822,"Xã Nậm Chầy, Huyện Văn Bàn, Lào Cai"
Tỉnh Lào Cai,Thị xã Sa Pa,Phường Sa Pa,22.35716,103.87705,"Xã Sa Pả, Lào Cai"
Tỉnh Lào Cai,Thị xã Sa Pa,Phường Sa Pả,22.35716,103.87705,"Xã Sa Pả, Lào Cai"
Tỉnh Lâm Đồng,Huyện Bảo Lâm,Xã Lộc Thành,11.449774,107.834846,"Xã Lộc Thành, Lộc Thành, Huyện Bảo Lâm, Lâm Đồng"
Tỉnh Lâm Đồng,Huyện Đức Trọng,Xã Tân Thành,11.7139026,108.2615553,"Xã Tân Thành, Tân Thành, Huyện Đức Trọng, Lâm Đồng"
Tỉnh Lâm Đồng,Thành phố Bảo Lộc,Xã Lộc Thanh,11.56241,107.85274,"Xã Lộc Thanh, Lâm Đồng"
Tỉnh Lạng Sơn,Huyện Bình Gia,Xã Hồng Phong,22.089139,106.393262,"Xã Hồng Phong, Huyện Bình Gia, Lạng Sơn"
Tỉnh Lạng Sơn,Huyện Bắc Sơn,Xã Nhất Tiến,21.7123,106.27979,"Xã Nhất Tiến, Lạng Sơn"
Tỉnh Lạng Sơn,Huyện Bắc Sơn,Xã Tân Thành,21.760169,106.208449,"Xã Tân Thành, Huyện Bắc Sơn, Lạng Sơn"
Tỉnh Lạng Sơn,Huyện Bắc Sơn,Xã Vạn Thủy,21.915,106.20146,"Xã Vạn Thủy, Lạng Sơn"
Tỉnh Lạng Sơn,Huyện Cao Lộc,Xã Tân Thành,21.762445,106.673993,"Xã Tân Thành, Huyện Cao Lộc, Lạng Sơn"
Tỉnh Lạng Sơn,Huyện Chi Lăng,Xã Vân Thủy,21.72382,106.71532,"Xã Vân Thủy, Lạng Sơn"
Tỉnh Lạng Sơn,Huyện Hữu Lũng,Xã Nhật Tiến,21.5423,106.3181,"Xã Nhật Tiến, Lạng Sơn"
Tỉnh Lạng Sơn,Huyện Hữu Lũng,Xã Tân Thành,21.51459,106.431905,"Xã Tân Thành, Huyện Hữu Lũng, Lạng Sơn"
Tỉnh Lạng Sơn,Huyện Đình Lập,Xã Bính Xá,21.64284,107.13593,"Xã Bính Xá, Lạng Sơn"
Tỉnh Lạng Sơn,Huyện Đình Lập,Xã Kiên Mộc,21.58752,107.21001,"Xã Kiên Mộc, Lạng Sơn"
Tỉnh Nam Định,Huyện Nam Trực,Xã Đồng Sơn,20.292456,106.162812,"Xã Đồng Sơn, Huyện Nam Trực, Nam Định"
Tỉnh Nam Định,Huyện Trực Ninh,Xã Trực Hùng,20.17928,106.18659,"Xã Trực Hùng, Nam Định"
Tỉnh Nam Định,Huyện Trực Ninh,Xã Trực Hưng,20.17928,106.18659,"Xã Trực Hùng, Nam Định"
Tỉnh Nghệ An,Huyện Anh Sơn,Xã Hoa Sơn,18.927218,105.028276,"Xã Hoa Sơn, Huyện Anh Sơn, Nghệ An"
Tỉnh Nghệ An,Huyện Anh Sơn,Xã Tam Đỉnh,18.92902,105.08294,"Huyện Anh Sơn, Nghệ An"
Tỉnh Nghệ An,Huyện Anh Sơn,Xã Thành Sơn,19.054075,104.988266,"Xã Thành Sơn, Huyện Anh Sơn, Nghệ An"
Tỉnh Nghệ An,Huyện Diễn Châu,Xã Diễn Hoa,18.99347,105.58294,"Xã Diễn Hoa, Nghệ An"
Tỉnh Nghệ An,Huyện Diễn Châu,Xã Diễn Lâm,19.14418,105.53764,"Xã Diễn Lâm, Nghệ An"
Tỉnh Nghệ An,Huyện Kỳ Sơn,Xã Nậm Càn,19.4605,104.12263,"Xã Nậm Cắn, Nghệ An"
Tỉnh Nghệ An,Huyện Kỳ Sơn,Xã Nậm Cắn,19.4605,104.12263,"Xã Nậm Cắn, Nghệ An"
Tỉnh Nghệ An,Huyện Nam Đàn,Xã Nam Thanh,18.737403,105.503738,"Xã Nam Thanh, Huyện Nam Đàn, Nghệ An"
Tỉnh Nghệ An,Huyện Nghi Lộc,Xã Diên Hoa,18.83131,105.62411,"Huyện Nghi Lộc, Nghệ An"
Tỉnh Nghệ An,Huyện Nghi Lộc,Xã Nghi Văn,18.88784,105.56334,"Xã Nghi Văn, Nghệ An"
Tỉnh Nghệ An,Huyện Nghi Lộc,Xã Nghi Vạn,18.88784,105.56334,"Xã Nghi Văn, Nghệ An"
Tỉnh Nghệ An,Huyện Quỳ Châu,Xã Châu Bình,19.69359,105.05746,"Xã Châu Bính, Nghệ An"
Tỉnh Nghệ An,Huyện Quỳ Châu,Xã Châu Bính,19.69359,105.05746,"Xã Châu Bính, Nghệ An"
Tỉnh Nghệ An,Huyện Quỳ Châu,Xã Diên Lãm,19.39475,104.94008,"Xã Diên Lãm, Nghệ An"
Tỉnh Nghệ An,Huyện Thanh Chương,Xã Thanh Sơn,18.7545423,105.1217004,"Xã Thanh Sơn, Huyện Thanh Chương, Nghệ An"
Tỉnh Nghệ An,Huyện Tương Dương,Xã Tam Đình,19.19493,104.60078,"Xã Tam Đình, Nghệ An"
Tỉnh Nghệ An,Huyện Yên Thành,Xã Nam Thành,18.957622,105.443368,"Xã Nam Thành, Huyện Yên Thành, Nghệ An"
Tỉnh Nghệ An,Huyện Yên Thành,Xã Đông Thành,19.01511,105.39542,"Xã Đồng Thành, Nghệ An"
Tỉnh Nghệ An,Huyện Yên Thành,Xã Đồng Thành,19.01511,105.39542,"Xã Đồng Thành, Nghệ An"
Tỉnh Nghệ An,Huyện Đô Lương,Xã Hòa Sơn,18.900372,105.372423,"Xã Hòa Sơn, Huyện Đô Lương, Nghệ An"
Tỉnh Ninh Bình,Huyện Gia Viễn,Xã Gia Tân,20.3295214,105.9101017,"Xã Gia Tân, Gia Tân, Huyện Gia Viễn, Ninh Bình"
Tỉnh Ninh Bình,Thành phố Tam Điệp,Xã Đông Sơn,20.132665,105.945447,"Xã Đông Sơn, Đông Sơn, Tam Điệp, Ninh Bình"
Tỉnh Ninh Thuận,Huyện Ninh Hải,Xã Thanh Hải,11.61062,109.1271,"Huyện Ninh Hải, Ninh Thuận"
Tỉnh Ninh Thuận,Thành phố Phan Rang-Tháp Chàm,Phường Đông Hải,11.549728,109.026764,"Phường Đông Hải, Thành Phố Phan Rang-Tháp Chàm, Ninh Thuận"
Tỉnh Ninh Thuận,Thành phố Phan Rang-Tháp Chàm,Xã Thành Hải,11.60385,108.9844,"Xã Thành Hải, Ninh Thuận"
Tỉnh Phú Thọ,Huyện Cẩm Khê,Xã Yên Dưỡng,21.32491,105.14643,"Xã Yên Dưỡng, Phú Thọ"
Tỉnh Phú Thọ,Huyện Phù Ninh,Xã Liên Hoa,21.50428,105.26374,"Xã Liên Hoa, Phú Thọ"
Tỉnh Phú Thọ,Huyện Thanh Ba,Xã Quảng Yên,21.47816,105.15881,"Huyện Thanh Ba, Phú Thọ"
Tỉnh Phú Thọ,Huyện Tân Sơn,Xã Vinh Tiền,21.06906,105.06621,"Xã Vinh Tiền, Phú Thọ"
Tỉnh Phú Thọ,Huyện Yên Lập,Xã Hưng Long,21.367376,105.031838,"Xã Hưng Long, Huyện Yên Lập, Phú Thọ"
Tỉnh Phú Thọ,Huyện Đoan Hùng,Xã Hùng Long,21.58826,105.22563,"Xã Hùng Long, Phú Thọ"
Tỉnh Phú Yên,Huyện Phú Hòa,Xã Hòa An,13.0693784,109.287103,"Xã Hòa An, Hòa An, Huyện Phú Hòa, Phú Yên"
Tỉnh Phú Yên,Huyện Phú Hòa,Xã Hòa Trị,13.08382,109.25651,"Xã Hòa Trị, Phú Yên"
Tỉnh Phú Yên,Huyện Sông Hinh,Xã Ea Bar,12.96874,108.809321,"Xã Ea Bar, Ea Bar, Huyện Sông Hinh, Phú Yên"
Tỉnh Phú Yên,Huyện Sông Hinh,Xã Ea Bia,13.01422,108.82464,"Xã Ea Bá, Phú Yên"
Tỉnh Phú Yên,Huyện Tây Hòa,Xã Hòa Bình 1,13.017642,109.275842,"Xã Hòa Bình 1, Hòa Bình 1, Huyện Tây Hòa, Phú Yên"
Tỉnh Phú Yên,Huyện Tây Hòa,Xã Hòa Đồng,12.96961,109.2458,"Xã Hòa Đồng, Phú Yên"
Tỉnh Phú Yên,Thành phố Tuy Hòa,Phường 9,13.1141291,109.304004,Tỉnh Ủy Phú Yên
Tỉnh Phú Yên,Thị xã Đông Hòa,Phường Hòa Hiệp Bắc,13.10922,109.20663,"Đông Hòa, Phú Yên"
Tỉnh Quảng Bình,Huyện Quảng Trạch,Xã Quảng Phú,17.8862378,106.4422319,"Xã Quảng Phú, Quảng Phú, Huyện Quảng Trạch, Quảng Bình"
Tỉnh Quảng Bình,Huyện Quảng Trạch,Xã Quảng Tiến,17.822327,106.378971,"Xã Quảng Tiến, Quảng Tiến, Huyện Quảng Trạch, Quảng Bình"
Tỉnh Quảng Bình,Thành Phố Đồng Hới,Xã Quang Phú,17.51236,106.60398,"Xã Quang Phú, Quảng Bình"
Tỉnh Quảng Bình,Thị xã Ba Đồn,Xã Quảng Tiên,17.74211,106.31378,"Xã Quảng Tiên, Quảng Bình"
Tỉnh Quảng Nam,Huyện Nam Trà My,Xã Trà Don,15.099452,108.124816,"Xã Trà Don, Huyện Nam Trà My, Quảng Nam"
Tỉnh Quảng Nam,Huyện Nam Trà My,Xã Trà Dơn,15.099452,108.124816,"Xã Trà Don, Huyện Nam Trà My, Quảng Nam"
Tỉnh Quảng Nam,Huyện Núi Thành,Xã Tam Thạnh,15.44104,108.54067,"Xã Tam Thạnh, Quảng Nam"
Tỉnh Quảng Nam,Huyện Phú Ninh,Xã Tam Dân,15.50329,108.41169,"Xã Tam Dân, Quảng Nam"
Tỉnh Quảng Nam,Huyện Phú Ninh,Xã Tam Thành,15.60322,108.40455,"Xã Tam Thành, Quảng Nam"
Tỉnh Quảng Nam,Huyện Phú Ninh,Xã Tam Đàn,15.50329,108.41169,"Xã Tam Dân, Quảng Nam"
Tỉnh Quảng Nam,Thành phố Tam Kỳ,Xã Tam Thanh,15.6145,108.4907,"Xã Tam Thăng, Quảng Nam"
Tỉnh Quảng Ngãi,Huyện Bình Sơn,Xã Bình Thanh,15.374088,108.753166,"Xã Bình Thạnh, Huyện Bình Sơn, Quảng Ngãi"
Tỉnh Quảng Ngãi,Huyện Bình Sơn,Xã Bình Thạnh,15.374088,108.753166,"Xã Bình Thạnh, Huyện Bình Sơn, Quảng Ngãi"
Tỉnh Quảng Ngãi,Huyện Trà Bồng,Xã Trà Bùi,15.13728,108.49821,"Xã Trà Bùi, Quảng Ngãi"
Tỉnh Quảng Ninh,Huyện Bình Liêu,Xã Vô Ngại,21.52026,107.35532,"Xã Vô Ngại, Quảng Ninh"
Tỉnh Quảng Ninh,Huyện Hải Hà,Xã Quảng Long,21.4517659,107.6881513,"Xã Quảng Long, Quảng Long, Huyện Hải Hà, Quảng Ninh"
Tỉnh Quảng Ninh,Huyện Tiên Yên,Xã Hải Lạng,21.3199819,107.3562891,"Xã Hải Lạng, Hải Lạng, Huyện Tiên Yên, Quảng Ninh"
Tỉnh Quảng Ninh,Huyện Tiên Yên,Xã Yên Than,21.348,107.37088,"Xã Yên Than, Quảng Ninh"
Tỉnh Quảng Ninh,Huyện Tiên Yên,Xã Đông Ngũ,21.35282,107.46016,"Xã Đông Ngũ, Quảng Ninh"
Tỉnh Quảng Ninh,Huyện Tiên Yên,Xã Đại Dực,21.43061,107.44127,"Xã Đại Dực, Quảng Ninh"
Tỉnh Quảng Ninh,Thành phố Cẩm Phả,Xã Hải Hòa,21.08265,107.3027,"Thành Phố Cẩm Phả, Quảng Ninh"
Tỉnh Quảng Ninh,Thành phố Hạ Long,Phường Hà Khẩu,20.98423,106.98938,"Phường Hà Khẩu, Quảng Ninh"
Tỉnh Quảng Ninh,Thành phố Hạ Long,Xã Đồng Lâm,21.0978862,107.0511001,"Xã Đồng Lâm, Đồng Lâm, Thành Phố Hạ Long, Quảng Ninh"
Tỉnh Quảng Ninh,Thành phố Uông Bí,Phường Trưng Vương,21.004855250248,106.785765122757,"Phường Trưng Vương, Uông Bí, Quảng Ninh"
Tỉnh Quảng Ninh,Thành phố Đông Triều,Phường Đức Chính,21.090962,106.518373,"Đức Chính, Đông Triều, Quảng Ninh"
Tỉnh Quảng Ninh,Thị xã Quảng Yên,Xã Liên Hòa,20.93237,106.83728,"Thị Xã Quảng Yên, Quảng Ninh"
Tỉnh Quảng Trị,Huyện Hướng Hóa,Xã Tân Thành,16.601463,106.632087,"Xã Tân Thành, Huyện Hướng Hóa, Quảng Trị"
Tỉnh Sóc Trăng,Huyện Châu Thành,Xã Phú Tân,9.667544,105.9517,"Xã Phú Tân, Huyện Châu Thành, Sóc Trăng"
Tỉnh Sóc Trăng,Huyện Long Phú,Xã Long Phú,9.587176,106.128761,"Xã Long Phú, Huyện Long Phú, Sóc Trăng"
Tỉnh Sóc Trăng,Huyện Long Phú,Xã Phú Hữu,9.69721,106.056156,"Xã Phú Hữu, Huyện Long Phú, Sóc Trăng"
Tỉnh Sóc Trăng,Huyện Long Phú,Xã Tân Thạnh,9.623045,106.037969,"Xã Tân Thạnh, Huyện Long Phú, Sóc Trăng"
Tỉnh Sóc Trăng,Huyện Mỹ Tú,Xã Thuận Hưng,9.567259,105.850325,"Xã Thuận Hưng, Huyện Mỹ Tú, Sóc Trăng"
Tỉnh Sóc Trăng,Huyện Mỹ Xuyên,Xã Thạnh Phú,9.502193,105.851356,"Xã Thạnh Phú, Huyện Mỹ Xuyên, Sóc Trăng"
Tỉnh Sóc Trăng,Huyện Mỹ Xuyên,Xã Thạnh Quới,9.457584,105.798015,"Xã Thạnh Quới, Huyện Mỹ Xuyên, Sóc Trăng"
Tỉnh Sóc Trăng,Thị xã Ngã Năm,Xã Long Bình,9.549918,105.627123,"Xã Long Bình, Ngã Năm, Sóc Trăng"
Tỉnh Sóc Trăng,Thị xã Ngã Năm,Xã Tân Long,9.524638,105.672132,"Xã Tân Long, Ngã Năm, Sóc Trăng"
Tỉnh Sơn La,Huyện Mai Sơn,Xã Chiềng Dong,21.17776,103.94345,"Xã Chiềng Dong, Sơn La"
Tỉnh Sơn La,Huyện Mai Sơn,Xã Mường Bằng,21.272761,104.041616,"Xã Mường Bằng, Huyện Mai Sơn, Sơn La"
Tỉnh Sơn La,Huyện Phù Yên,Xã Mường Bang,21.11243,104.81647,"Xã Mường Bang, Sơn La"
Tỉnh Sơn La,Huyện Quỳnh Nhai,Xã Chiềng Ơn,21.68439,103.70627,"Xã Chiềng Ơn, Sơn La"
Tỉnh Sơn La,Huyện Quỳnh Nhai,Xã Mường Sại,21.62149,103.7147,"Xã Mường Sại, Sơn La"
Tỉnh Sơn La,Huyện Sông Mã,Xã Mường Sai,20.97867,104.00547,"Xã Mường Sai, Sơn La"
Tỉnh Sơn La,Huyện Yên Châu,Xã Chiềng Hặc,21.02553,104.38458,"Xã Chiềng Hặc, Sơn La"
Tỉnh Sơn La,Huyện Yên Châu,Xã Chiềng On,20.9837,104.17545,"Xã Chiềng On, Sơn La"
Tỉnh Sơn La,Huyện Yên Châu,Xã Chiềng Đông,21.108451,104.232748,"Xã Chiềng Đông, Huyện Yên Châu, Sơn La"
Tỉnh Sơn La,Thị xã Mộc Châu,Xã Chiềng Hắc,20.91026,104.52903,"Xã Chiềng Hắc, Sơn La"
Tỉnh Thanh Hóa,Huyện Bá Thước,Xã Thành Lâm,20.43322,105.16209,"Xã Thành Lâm, Thanh Hóa"
Tỉnh Thanh Hóa,Huyện Hoằng Hóa,Xã Hoằng Giang,19.88599,105.78006,"Xã Hoằng Giang, Thanh Hóa"
Tỉnh Thanh Hóa,Huyện Hoằng Hóa,Xã Hoằng Phú,19.806,105.92596,"Xã Hoằng Phụ, Thanh Hóa"
Tỉnh Thanh Hóa,Huyện Hoằng Hóa,Xã Hoằng Phụ,19.806,105.92596,"Xã Hoằng Phụ, Thanh Hóa"
Tỉnh Thanh Hóa,Huyện Hoằng Hóa,Xã Hoằng Quý,19.89329,105.8178,"Xã Hoằng Quý, Thanh Hóa"
Tỉnh Thanh Hóa,Huyện Hoằng Hóa,Xã Hoằng Quỳ,19.89329,105.8178,"Xã Hoằng Quý, Thanh Hóa"
Tỉnh Thanh Hóa,Huyện Hoằng Hóa,Xã Hoằng Sơn,19.9026,105.84345,"Xã Hoằng Sơn, Thanh Hóa"
Tỉnh Thanh Hóa,Huyện Hoằng Hóa,Xã Hoằng Thanh,19.83166,105.92949,"Xã Hoằng Thanh, Thanh Hóa"
Tỉnh Thanh Hóa,Huyện Hoằng Hóa,Xã Hoằng Thành,19.83166,105.92949,"Xã Hoằng Thanh, Thanh Hóa"
Tỉnh Thanh Hóa,Huyện Hoằng Hóa,Xã Hoằng Đông,19.82084,105.91339,"Xã Hoằng Đông, Thanh Hóa"
Tỉnh Thanh Hóa,Huyện Hoằng Hóa,Xã Hoằng Đồng,19.82084,105.91339,"Xã Hoằng Đông, Thanh Hóa"
Tỉnh Thanh Hóa,Huyện Hà Trung,Thị trấn Hà Trung,19.993532385061,105.845126411597,"Thị Trấn Hà Trung, Huyện Hà Trung, Thanh Hóa"
Tỉnh Thanh Hóa,Huyện Hà Trung,Xã Hà Bình,20.03696,105.84416,"Xã Hà Bình, Thanh Hóa"
Tỉnh Thanh Hóa,Huyện Hậu Lộc,Xã Hoa Lộc,19.93127,105.93024,"Xã Hoa Lộc, Thanh Hóa"
Tỉnh Thanh Hóa,Huyện Hậu Lộc,Xã Hòa Lộc,19.93127,105.93024,"Xã Hoa Lộc, Thanh Hóa"
Tỉnh Thanh Hóa,Huyện Hậu Lộc,Xã Quang Lộc,19.955788,105.924197,"Xã Quang Lộc, Quang Lộc, Huyện Hậu Lộc, Thanh Hóa"
Tỉnh Thanh Hóa,Huyện Nga Sơn,Xã Nga Thanh,20.02621,106.01739,"Xã Nga Thành, Thanh Hóa"
Tỉnh Thanh Hóa,Huyện Nga Sơn,Xã Nga Thành,20.02621,106.01739,"Xã Nga Thành, Thanh Hóa"
Tỉnh Thanh Hóa,Huyện Ngọc Lặc,Xã Quang Trung,20.1292167,105.411616,"Xã Quang Trung, Quang Trung, Huyện Ngọc Lặc, Thanh Hóa"
Tỉnh Thanh Hóa,Huyện Như Thanh,Xã Thanh Tân,19.474038,105.6038905,"Xã Thanh Tân, Thanh Tân, Huyện Như Thanh, Thanh Hóa"
Tỉnh Thanh Hóa,Huyện Như Thanh,Xã Yên Thọ,19.5871645,105.6221797,"Xã Yên Thọ, Yên Thọ, Huyện Như Thanh, Thanh Hóa"
Tỉnh Thanh Hóa,Huyện Như Xuân,Xã Thanh Lâm,19.6577472,105.2990761,"Xã Thanh Lâm, Thanh Lâm, Huyện Như Xuân, Thanh Hóa"
Tỉnh Thanh Hóa,Huyện Nông Cống,Xã Hoàng Giang,19.70961,105.7139,"Xã Hoàng Giang, Thanh Hóa"
Tỉnh Thanh Hóa,Huyện Nông Cống,Xã Hoàng Sơn,19.52111,105.75415,"Xã Hoàng Sơn, Thanh Hóa"
Tỉnh Thanh Hóa,Huyện Quan Sơn,Thị trấn Sơn Lư,20.242499,104.933741,"Sơn Lư, Huyện Quan Sơn, Thanh Hóa"
Tỉnh Thanh Hóa,Huyện Quảng Xương,Xã Quảng Lộc,19.664517,105.818941,"Xã Quảng Lộc, Quảng Lộc, Huyện Quảng Xương, Thanh Hóa"
Tỉnh Thanh Hóa,Huyện Thiệu Hóa,Thị trấn Thiệu Hóa,19.879227,105.613523,"Thiệu Hòa, Huyện Thiệu Hóa, Thanh Hóa"
Tỉnh Thanh Hóa,Huyện Thiệu Hóa,Xã Thiệu Long,19.92171,105.69579,"Xã Thiệu Long, Thanh Hóa"
Tỉnh Thanh Hóa,Huyện Thiệu Hóa,Xã Thiệu Vận,19.85656,105.75013,"Xã Thiệu Vận, Thanh Hóa"
Tỉnh Thanh Hóa,Huyện Thường Xuân,Xã Luận Khê,19.80102,105.33586,"Xã Luận Khê, Thanh Hóa"
Tỉnh Thanh Hóa,Huyện Thạch Thành,Xã Thành Tân,20.17458,105.7006,"Xã Thành Tân, Thanh Hóa"
Tỉnh Thanh Hóa,Huyện Thọ Xuân,Xã Phú Xuân,19.867759,105.411805,"Xã Xuân Phú, Xuân Phú, Huyện Thọ Xuân, Thanh Hóa"
Tỉnh Thanh Hóa,Huyện Triệu Sơn,Xã Đồng Tiến,19.776243,105.68355,"Xã Đồng Tiến, Đồng Tiến, Huyện Triệu Sơn, Thanh Hóa"
Tỉnh Thanh Hóa,Huyện Vĩnh Lộc,Xã Vĩnh Hùng,20.03006,105.68616,"Xã Vĩnh Hùng, Thanh Hóa"
Tỉnh Thanh Hóa,Huyện Vĩnh Lộc,Xã Vĩnh Hưng,20.03006,105.68616,"Xã Vĩnh Hùng, Thanh Hóa"
Tỉnh Thanh Hóa,Thành phố Thanh Hóa,Phường An Hưng,19.798151,105.752159,"An Hưng, Nhồi, Thành Phố Thanh Hóa, Thanh Hóa"
Tỉnh Thanh Hóa,Thành phố Thanh Hóa,Phường Đông Thọ,19.83015,105.77729,"Phường Đông Thọ, Thanh Hóa"
Tỉnh Thanh Hóa,Thành phố Thanh Hóa,Xã Thiệu Vân,19.865171,105.740663,"Xã Thiệu Vân, Thiệu Vân, Thành Phố Thanh Hóa, Thanh Hóa"
Tỉnh Thanh Hóa,Thành phố Thanh Hóa,Xã Đông Tiến,19.80232,105.79258,"Thành Phố Thanh Hóa, Thanh Hóa"
Tỉnh Thanh Hóa,Thị xã Bỉm Sơn,Xã Quang Trung,20.065247,105.853162,"Xã Quang Trung, Quang Trung, Thị Xã Bỉm Sơn, Thanh Hóa"
Tỉnh Thái Bình,Huyện Vũ Thư,Xã Việt Hùng,20.471616,106.229884,"Xã Việt Hùng, Huyện Vũ Thư, Thái Bình"
Tỉnh Thái Nguyên,Huyện Phú Bình,Xã Thượng Đình,21.49589,105.90581,"Xã Thượng Đình, Thái Nguyên"
Tỉnh Thái Nguyên,Huyện Đồng Hỷ,Xã Văn Lăng,21.773755,105.827295,"Xã Văn Lăng, Huyện Đồng Hỷ, Thái Nguyên"
Tỉnh Thái Nguyên,Thành phố Thái Nguyên,Phường Cam Giá,21.551389,105.877467,"Phường Cam Giá, Thành Phố Thái Nguyên, Thái Nguyên"
Tỉnh Thái Nguyên,Thành phố Thái Nguyên,Phường Gia Sàng,21.57408,105.84912,"Phường Gia Sàng, Thái Nguyên"
Tỉnh Tiền Giang,Huyện Gò Công Tây,Xã Bình Tân,10.313761,106.65624,"Xã Bình Tân, Bình Tân, Huyện Gò Công Tây, Tiền Giang"
Tỉnh Tiền Giang,Huyện Gò Công Đông,Xã Tân Thành,10.290969,106.778284,"Xã Tân Thành, Tân Thành, Huyện Gò Công Đông, Tiền Giang"
Tỉnh Tiền Giang,Huyện Tân Phú Đông,Xã Tân Thạnh,10.2612519,106.5994852,"Xã Tân Thạnh, Tân Thạnh, Huyện Tân Phú Đông, Tiền Giang"
Tỉnh Tiền Giang,Huyện Tân Phước,Xã Thạnh Hòa,10.551709,106.1085485,"Xã Thạnh Hòa, Huyện Tân Phước, Tiền Giang"
Tỉnh Tiền Giang,Huyện Tân Phước,Xã Thạnh Mỹ,10.5294963,106.1951337,"Xã Thạnh Mỹ, Thạnh Mỹ, Huyện Tân Phước, Tiền Giang"
Tỉnh Tiền Giang,Thành phố Mỹ Tho,Phường 4,10.360751,106.359621,"Phường 4, Thành Phố Mỹ Tho, Tiền Giang"
Tỉnh Tiền Giang,Thành phố Mỹ Tho,Phường 6,10.351418,106.352147,"Phường 6, Thành Phố Mỹ Tho, Tiền Giang"
Tỉnh Tiền Giang,Thị xã Cai Lậy,Phường 3,10.4212774,106.1192237,"Phường 3, Thị Xã Cai Lậy, Tiền Giang"
Tỉnh Tiền Giang,Thị xã Cai Lậy,Phường 4,10.4062047,106.1198421,"Phường 4, Thị Xã Cai Lậy, Tiền Giang"
Tỉnh Tiền Giang,Thị xã Cai Lậy,Xã Thanh Hòa,10.394478,106.093846,"Xã Thanh Hòa, Thanh Hòa, Thị Xã Cai Lậy, Tiền Giang"
Tỉnh Trà Vinh,Huyện Tiểu Cần,Xã Tân Hùng,9.794301,106.202936,"Xã Tân Hùng, Huyện Tiểu Cần, Trà Vinh"
Tỉnh Tuyên Quang,Huyện Hàm Yên,Xã Tân Thành,22.092721,105.046894,"Xã Tân Thành, Huyện Hàm Yên, Tuyên Quang"
Tỉnh Tuyên Quang,Huyện Yên Sơn,Xã Thái Bình,21.79763,105.255874,"Xã Thái Bình, Huyện Yên Sơn, Tuyên Quang"
Tỉnh Tuyên Quang,Thành phố Tuyên Quang,Xã Kim Phú,21.7884062,105.1708487,"Kim Phú, Thành Phố Tuyên Quang, Tuyên Quang"
Tỉnh Tây Ninh,Huyện Châu Thành,Xã Thái Bình,11.312088,106.062748,"Xã Thái Bình, Huyện Châu Thành, Tây Ninh"
Tỉnh Tây Ninh,Huyện Dương Minh Châu,Xã Chà Là,11.30581,106.20358,"Xã Chà Là, Tây Ninh"
Tỉnh Tây Ninh,Huyện Dương Minh Châu,Xã Phan,11.34418,106.2012,"Xã Phan, Tây Ninh"
Tỉnh Tây Ninh,Huyện Dương Minh Châu,Xã Phước Minh,11.314618,106.307569,"Xã Phước Minh, Huyện Dương Minh Châu, Tây Ninh"
Tỉnh Tây Ninh,Huyện Dương Minh Châu,Xã Suối Đá,11.39802,106.27407,"Xã Suối Đá, Tây Ninh"
Tỉnh Tây Ninh,Huyện Gò Dầu,Xã Thanh Phước,11.073865,106.289228,"Xã Thanh Phước, Huyện Gò Dầu, Tây Ninh"
Tỉnh Tây Ninh,Huyện Tân Biên,Xã Mỏ Công,11.46067,106.05079,"Xã Mỏ Công, Tây Ninh"
Tỉnh Tây Ninh,Huyện Tân Biên,Xã Trà Vong,11.4299,106.0713,"Xã Trà Vong, Tây Ninh"
Tỉnh Tây Ninh,Huyện Tân Biên,Xã Tân Phong,11.490928,106.01923,"Xã Tân Phong, Huyện Tân Biên, Tây Ninh"
Tỉnh Tây Ninh,Huyện Tân Châu,Xã Suối Dây,11.55578,106.22281,"Xã Suối Dây, Tây Ninh"
Tỉnh Tây Ninh,Huyện Tân Châu,Xã Tân Phú,11.509312,106.161753,"Xã Tân Phú, Huyện Tân Châu, Tây Ninh"
Tỉnh Tây Ninh,Thành phố Tây Ninh,Phường 4,11.36915,106.12662,"Thành Phố Tây Ninh, Tây Ninh"
Tỉnh Vĩnh Long,Huyện Bình Tân,Xã Tân Thành,10.15274,105.7584,"Xã Tân Thành, Vĩnh Long"
Tỉnh Vĩnh Long,Huyện Mang Thít,Xã Mỹ An,10.18731,106.07472,"Huyện Mang Thít, Vĩnh Long"
Tỉnh Vĩnh Long,Huyện Tam Bình,Thị trấn Tam Bình,10.047285291418,105.995069839124,"Thị Trấn Tam Bình, Huyện Tam Bình, Vĩnh Long"
Tỉnh Vĩnh Long,Huyện Tam Bình,Xã Hòa Lộc,10.085117,106.00446,"Xã Hòa Lộc, Hòa Lộc, Huyện Tam Bình, Vĩnh Long"
Tỉnh Vĩnh Long,Huyện Tam Bình,Xã Ngãi Tứ,10.01047,105.9078,"Xã Ngãi Tứ, Vĩnh Long"
Tỉnh Vĩnh Long,Huyện Trà Ôn,Thị trấn Trà Ôn,9.965887739227,105.923694842899,"Thị Trấn Trà Ôn, Huyện Trà Ôn, Vĩnh Long"
Tỉnh Vĩnh Long,Thị xã Bình Minh,Phường Cái Vồn,10.06551,105.81119,"Phường Cái Vồn, Vĩnh Long"
Tỉnh Vĩnh Long,Thị xã Bình Minh,Phường Thành Phước,10.06581,105.80063,"Phường Thành Phước, Vĩnh Long"
Tỉnh Vĩnh Long,Thị xã Bình Minh,Xã Đông Thành,10.046908,105.867575,"Xã Đông Thạnh, Đông Thạnh, Bình Minh, Vĩnh Long"
Tỉnh Vĩnh Long,Thị xã Bình Minh,Xã Đông Thạnh,10.046908,105.867575,"Xã Đông Thạnh, Đông Thạnh, Bình Minh, Vĩnh Long"
Tỉnh Vĩnh Phúc,Huyện Lập Thạch,Xã Liên Hòa,21.408329,105.522157,"Xã Liên Hòa, Huyện Lập Thạch, Vĩnh Phúc"
Tỉnh Vĩnh Phúc,Huyện Sông Lô,Xã Quang Yên,21.50407,105.36854,"Xã Quang Yên, Vĩnh Phúc"
Tỉnh Vĩnh Phúc,Huyện Tam Đảo,Xã Yên Dương,21.494762,105.5052,"Xã Yên Dương, Huyện Tam Đảo, Vĩnh Phúc"
Tỉnh Yên Bái,Huyện Mù Căng Chải,Xã La Pán Tẩn,21.790276,104.167683,"Xã La Pán Tẩn, Huyện Mù Cang Chải, Yên Bái"
Tỉnh Yên Bái,Huyện Trấn Yên,Xã Minh Quán,21.77515,104.8541,"Xã Minh Quán, Yên Bái"
Tỉnh Yên Bái,Huyện Trấn Yên,Xã Minh Quân,21.77515,104.8541,"Xã Minh Quán, Yên Bái"
Tỉnh Điện Biên,Huyện Tuần Giáo,Xã Nà Tòng,21.8062873,103.3947858,"Nà Tòng, Huyện Tuần Giáo, Điện Biên"
Tỉnh Điện Biên,Huyện Điện Biên,Xã Na Tông,21.163607,103.0865273,"Na Tông, Huyện Điện Biên, Điện Biên"
Tỉnh Đắk Lắk,Huyện Cư Kuin,Xã Ea BHốk,12.56252,108.17126,"Xã Ea Bhốk, Huyện Cư Kuin, Đắk Lắk"
Tỉnh Đắk Lắk,Huyện Cư M'gar,Xã Ea Drơng,12.781565,108.165496,"Xã Ea Drơng, Huyện Cư M'Gar, Đắk Lắk"
Tỉnh Đắk Lắk,Huyện Krông Pắc,Xã Hòa Đông,12.703443,108.156041,"Xã Hòa Đông, Huyện Krông Păk, Đắk Lắk"
Tỉnh Đắk Lắk,Thị Xã Buôn Hồ,Xã Ea Drông,12.88294,108.33749,"Xã Ea Drông, Tỉnh Đắc Lắc"
Tỉnh Đắk Nông,Huyện Krông Nô,Xã Tân Thành,12.434764,107.811432,"Xã Tân Thành, Huyện Krông Nô, Đắk Nông"
Tỉnh Đồng Nai,Huyện Nhơn Trạch,Xã Phú Thạnh,10.733971,106.851047,"Xã Phú Thạnh, Huyện Nhơn Trạch, Đồng Nai"
Tỉnh Đồng Nai,Huyện Nhơn Trạch,Xã Phước Thiền,10.7647,106.92446,"Xã Phước Thiền, Đồng Nai"
Tỉnh Đồng Nai,Huyện Tân Phú,Xã Phú Thanh,11.276613,107.4660452,"Xã Phú Thanh, Huyện Tân Phú, Đồng Nai"
Tỉnh Đồng Nai,Huyện Tân Phú,Xã Thanh Sơn,11.315219,107.480592,"Xã Thanh Sơn, Huyện Tân Phú, Đồng Nai"
Tỉnh Đồng Nai,Huyện Vĩnh Cửu,Xã Thạnh Phú,11.011651,106.827402,"Xã Thạnh Phú, Huyện Vĩnh Cửu, Đồng Nai"
Tỉnh Đồng Nai,Huyện Xuân Lộc,Xã Xuân Tâm,10.88427,107.44342,"Xã Xuân Tâm, Đồng Nai"
Tỉnh Đồng Tháp,Huyện Cao Lãnh,Xã Gáo Giồng,10.60524,105.62924,"Xã Gáo Giồng, Đồng Tháp"
Tỉnh Đồng Tháp,Huyện Hồng Ngự,Xã Phú Thuận B,10.73983,105.34993,"Xã Phú Thuận B, Đồng Tháp"
Tỉnh Đồng Tháp,Huyện Lai Vung,Xã Tân Thành,10.26183,105.59675,"Tân Thành, Đồng Tháp"
Tỉnh Đồng Tháp,Huyện Thanh Bình,Xã Bình Tấn,10.61529,105.58306,"Xã Bình Tấn, Đồng Tháp"
Tỉnh Đồng Tháp,Huyện Thanh Bình,Xã Tân Thạnh,10.570553,105.452281,"Xã Tân Thạnh, Huyện Thanh Bình, Đồng Tháp"
Tỉnh Đồng Tháp,Huyện Tháp Mười,Xã Thanh Mỹ,10.3748845,105.8267009,"Xã Thạnh Mỹ, Huyện Tháp Mười, Đồng Tháp"
Tỉnh Đồng Tháp,Thành phố Sa Đéc,Phường 3,10.3,105.76667,"Phường 3, Đồng Tháp"
Tỉnh Đồng Tháp,Thành phố Sa Đéc,Phường 4,10.29178,105.77315,"Phường 4, Đồng Tháp"
