province,district,ward,wardLat,wardLon,wardBounds,wardFormattedAddress
Thành phố Cần Thơ,Huyện Thới Lai,Xã Tân Thạnh,10.102197,105.576749,"10.067995,105.555353 – 10.128424,105.595179","Tân Thạnh, Thới Lai, Cần Thơ, Vietnam"
Thành phố Cần Thơ,Huyện Vĩnh Thạnh,Xã Thạnh Quới,10.215303,105.371668,"10.163729,105.33702 – 10.24797,105.414237","Thạnh Quới, Vĩnh Thạnh, Cần Thơ, Vietnam"
Thành phố Cần Thơ,Quận Bình Thủy,Phường Bùi Hữu Nghĩa,10.079978,105.755656,"10.054135,105.728044 – 10.0996,105.781045","Bùi Hữu Nghĩa, Bình Thủy, Cần Thơ, Vietnam"
Thành phố Cần Thơ,Quận Bình Thủy,Phường Long Tuyền,10.029751,105.729249,"10.003566,105.7031 – 10.047754,105.745855","Long Tuyền, Bình Thủy, Cần Thơ, Vietnam"
Thành phố Cần Thơ,Quận Thốt Nốt,Phường Thốt Nốt,10.272502,105.530263,"10.260322,105.496431 – 10.283779,105.543981","Thốt Nốt, Cần Thơ, Vietnam"
Thành phố Hà Nội,Huyện Ba Vì,Thị trấn Tây Đằng,21.206743,105.427309,"21.173607,105.393047 – 21.237583,105.460124","Tây Đằng, Ba Vì, Hà Nội, Vietnam"
Thành phố Hà Nội,Huyện Ba Vì,Xã Chu Minh,21.199303,105.444884,"21.184206,105.429261 – 21.211242,105.455722","Chu Minh, Ba Vì, Hanoi, Vietnam"
Thành phố Hà Nội,Huyện Ba Vì,Xã Cẩm Lĩnh,21.164191,105.354101,"21.137085,105.33086 – 21.204459,105.384081","Cẩm Lĩnh, Ba Vì, Hanoi, Vietnam"
Thành phố Hà Nội,Huyện Ba Vì,Xã Minh Quang,21.074536,105.318973,"21.037723,105.293999 – 21.118612,105.357857","Minh Quang, Ba Vì, Hà Nội, Vietnam"
Thành phố Hà Nội,Huyện Ba Vì,Xã Thụy An,21.159853,105.400951,"21.13397,105.375899 – 21.181425,105.436912","Thụy An, Ba Vì, Hanoi, Vietnam"
Thành phố Hà Nội,Huyện Chương Mỹ,Xã Lam Điền,20.886701,105.717514,"20.872957,105.700504 – 20.898689,105.739353","Lam Điền, Chương Mỹ, Hà Nội, Vietnam"
Thành phố Hà Nội,Huyện Chương Mỹ,Xã Tân Tiến,20.874459,105.600202,"20.83521,105.583055 – 20.895822,105.633588","Tân Tiến, Chương Mỹ, Hà Nội, Vietnam"
Thành phố Hà Nội,Huyện Gia Lâm,Thị trấn Trâu Quỳ,21.007839,105.937676,"20.995299,105.919941 – 21.022282,105.956032","tt. Trâu Quỳ, Gia Lâm, Hà Nội, Vietnam"
Thành phố Hà Nội,Huyện Gia Lâm,Xã Bát Tràng,20.985507,105.914729,"20.97227,105.900822 – 21.004454,105.928856","Bát Tràng, Gia Lâm, Hanoi, Vietnam"
Thành phố Hà Nội,Huyện Gia Lâm,Xã Cổ Bi,21.030362,105.943377,"21.015732,105.926957 – 21.048498,105.953179","Cổ Bi, Gia Lâm, Hà Nội, Vietnam"
Thành phố Hà Nội,Huyện Gia Lâm,Xã Phú Sơn,21.02517,105.979066,"21.00824,105.951548 – 21.04269,106.009419","Phú Sơn, Gia Lâm, Hà Nội, Vietnam"
Thành phố Hà Nội,Huyện Gia Lâm,Xã Đa Tốn,20.985228,105.931801,"20.969895,105.918331 – 20.999707,105.954144","Đa Tốn, Gia Lâm, Hà Nội, Vietnam"
Thành phố Hà Nội,Huyện Gia Lâm,Xã Đặng Xá,21.028761,105.961175,"21.012647,105.947299 – 21.051822,105.98249","Đặng Xá, Gia Lâm, Hà Nội, Vietnam"
Thành phố Hà Nội,Huyện Hoài Đức,Xã An Khánh,20.999471,105.720448,"20.978551,105.706158 – 21.02098,105.73564","An Khánh, Hoài Đức, Hà Nội, Vietnam"
Thành phố Hà Nội,Huyện Hoài Đức,Xã An Thượng,20.989532,105.702846,"20.973161,105.676951 – 21.006885,105.715091","An Thượng, Hoài Đức District, Hanoi, Vietnam"
Thành phố Hà Nội,Huyện Hoài Đức,Xã Kim Chung,21.046958,105.708713,"21.03498,105.703819 – 21.070645,105.730083","Kim Chung, Hoài Đức, Hà Nội, Vietnam"
Thành phố Hà Nội,Huyện Hoài Đức,Xã La Phù,20.979915,105.732558,"20.96693,105.721521 – 20.991373,105.741649","La Phù, Hoài Đức, Hà Nội, Vietnam"
Thành phố Hà Nội,Huyện Hoài Đức,Xã Song Phương,21.013827,105.691112,"20.999907,105.673199 – 21.030954,105.712509","Song Phương, Hoài Đức, Hà Nội, Vietnam"
Thành phố Hà Nội,Huyện Hoài Đức,Xã Vân Canh,21.033149,105.732183,"21.012206,105.717573 – 21.046775,105.739074","Vân Canh, Hoài Đức, Hà Nội, Vietnam"
Thành phố Hà Nội,Huyện Hoài Đức,Xã Vân Côn,20.991737,105.679379,"20.969254,105.663114 – 21.009843,105.69603","Vân Côn, Hoài Đức, Hà Nội, Vietnam"
Thành phố Hà Nội,Huyện Mê Linh,Xã Kim Hoa,21.22074,105.740985,"21.199977,105.724354 – 21.233022,105.754266","Kim Hoa, Mê Linh, Hà Nội, Vietnam"
Thành phố Hà Nội,Huyện Mê Linh,Xã Mê Linh,21.160141,105.738051,"21.148314,105.712381 – 21.181971,105.753708","Mê Linh, Hà Nội, Vietnam"
Thành phố Hà Nội,Huyện Mê Linh,Xã Thanh Lâm,21.211374,105.717514,"21.182491,105.693498 – 21.227862,105.755939","Thanh Lâm, Mê Linh, Hà Nội, Vietnam"
Thành phố Hà Nội,Huyện Mê Linh,Xã Thạch Đà,21.17205,105.673513,"21.146313,105.664873 – 21.192655,105.705385","Thạch Đà, Mê Linh, Hà Nội, Vietnam"
Thành phố Hà Nội,Huyện Mê Linh,Xã Tiến Thịnh,21.175372,105.63832,"21.155118,105.624404 – 21.195455,105.64893","Tiến Thịnh, Mê Linh, Hà Nội, Vietnam"
Thành phố Hà Nội,Huyện Mê Linh,Xã Tiền Phong,21.160532,105.76446,"21.131702,105.744267 – 21.18001,105.772505","Tiền Phong, Mê Linh, Hà Nội, Vietnam"
Thành phố Hà Nội,Huyện Mê Linh,Xã Văn Khê,21.166098,105.705779,"21.132503,105.693069 – 21.188733,105.728173","Văn Khê, Mê Linh, Hà Nội, Vietnam"
Thành phố Hà Nội,Huyện Mê Linh,Xã Đại Thịnh,21.185003,105.720448,"21.168725,105.700965 – 21.204178,105.75521","Đại Thịnh, Mê Linh, Hà Nội, Vietnam"
Thành phố Hà Nội,Huyện Mỹ Đức,Xã Đồng Tâm,20.806753,105.673513,"20.78986,105.648823 – 20.815575,105.698862","Đồng Tâm, Mỹ Đức, Hanoi, Vietnam"
Thành phố Hà Nội,Huyện Quốc Oai,Thị trấn Quốc Oai,20.995037,105.644185,"20.982518,105.627322 – 21.009883,105.664916","tt. Quốc Oai, Quốc Oai, Hà Nội, Vietnam"
Thành phố Hà Nội,Huyện Quốc Oai,Xã Ngọc Liệp,20.993625,105.597271,"20.984174,105.579129 – 21.010774,105.616852","Ngọc Liệp, Quốc Oai, Hanoi, Vietnam"
Thành phố Hà Nội,Huyện Quốc Oai,Xã Ngọc Mỹ,20.991433,105.620726,"20.968989,105.611384 – 21.007371,105.634724","Ngọc Mỹ, Quốc Oai, Hanoi, Vietnam"
Thành phố Hà Nội,Huyện Quốc Oai,Xã Phú Cát,20.971621,105.553299,"20.954787,105.526857 – 20.990972,105.582647","Phú Cát, Quốc Oai, Hà Nội, Vietnam"
Thành phố Hà Nội,Huyện Quốc Oai,Xã Phượng Sơn,21.007485,105.66174,"20.98104,105.635165 – 21.024461,105.677341","Phượng Sơn, Quốc Oai, Hanoi, Vietnam"
Thành phố Hà Nội,Huyện Sóc Sơn,Xã Mai Đình,21.229566,105.816045,"21.198016,105.807266 – 21.252102,105.854816","Mai Đình, Sóc Sơn, Hà Nội, Vietnam"
Thành phố Hà Nội,Huyện Sóc Sơn,Xã Phú Minh,21.202434,105.811418,"21.184132,105.802846 – 21.220231,105.838263","Phú Minh, Sóc Sơn, Hà Nội, Vietnam"
Thành phố Hà Nội,Huyện Sóc Sơn,Xã Quang Tiến,21.251423,105.814353,"21.21478,105.780187 – 21.287935,105.826278","Quang Tien, Soc Son, Hanoi, Vietnam"
Thành phố Hà Nội,Huyện Thanh Oai,Xã Cự Khê,20.920772,105.779834,"20.89917,105.76876 – 20.940278,105.799702","Cự Khê, Thanh Oai, Hanoi, Vietnam"
Thành phố Hà Nội,Huyện Thanh Oai,Xã Kim Thư,20.838549,105.767394,"20.831645,105.752214 – 20.846951,105.78185","Kim Thư, Thanh Oai, Hà Nội, Vietnam"
Thành phố Hà Nội,Huyện Thanh Trì,Thị trấn Văn Điển,20.949358,105.844442,"20.939146,105.833241 – 20.958123,105.847769","Văn Điển, Thanh Trì, Hà Nội, Vietnam"
Thành phố Hà Nội,Huyện Thanh Trì,Xã Duyên Hà,20.925974,105.884813,"20.913943,105.86576 – 20.936671,105.891788","Duyên Hà, Thanh Trì, Hà Nội, Vietnam"
Thành phố Hà Nội,Huyện Thanh Trì,Xã Hữu Hòa,20.945903,105.796742,"20.933945,105.787954 – 20.957993,105.808597","Hữu Hoà, Thanh Trì, Hà Nội, Vietnam"
Thành phố Hà Nội,Huyện Thanh Trì,Xã Liên Ninh,20.906138,105.84958,"20.895461,105.839882 – 20.922562,105.868249","Liên Ninh, Thanh Trì, Hà Nội, Vietnam"
Thành phố Hà Nội,Huyện Thanh Trì,Xã Ngũ Hiệp,20.928202,105.861323,"20.917851,105.845482 – 20.937813,105.870413","Ngũ Hiệp, Thanh Trì, Hà Nội, Vietnam"
Thành phố Hà Nội,Huyện Thanh Trì,Xã Tam Hiệp,20.948923,105.826094,"20.941842,105.81645 – 20.958714,105.843873","Tam Hiệp, Thanh Trì, Hà Nội, Vietnam"
Thành phố Hà Nội,Huyện Thanh Trì,Xã Thanh Liệt,20.96742,105.814353,"20.950018,105.801473 – 20.974383,105.824904","Thanh Liệt, Thanh Trì, Hà Nội, Vietnam"
Thành phố Hà Nội,Huyện Thanh Trì,Xã Tân Triều,20.971205,105.801053,"20.958815,105.790079 – 20.987767,105.809069","Tân Triều, Thanh Trì, Hà Nội, Vietnam"
Thành phố Hà Nội,Huyện Thanh Trì,Xã Tả Thanh Oai,20.933203,105.808482,"20.909313,105.789456 – 20.960859,105.821085","Tả Thanh Oai, Thanh Trì, Hanoi, Vietnam"
Thành phố Hà Nội,Huyện Thanh Trì,Xã Tứ Hiệp,20.946142,105.855451,"20.931941,105.844238 – 20.957532,105.866575","Tứ Hiệp, Thanh Trì, Hà Nội, Vietnam"
Thành phố Hà Nội,Huyện Thanh Trì,Xã Vĩnh Quỳnh,20.931538,105.826094,"20.918794,105.812416 – 20.945168,105.848723","Vĩnh Quỳnh, Thanh Trì, Hà Nội, Vietnam"
Thành phố Hà Nội,Huyện Thanh Trì,Xã Yên Mỹ,20.944471,105.873068,"20.928694,105.864344 – 20.955629,105.886874","Yên Mỹ, Thanh Trì, Hà Nội, Vietnam"
Thành phố Hà Nội,Huyện Thanh Trì,Xã Đông Mỹ,20.922191,105.872511,"20.906221,105.865867 – 20.92421,105.891187","Đông Mỹ, Thanh Trì, Hà Nội, Vietnam"
Thành phố Hà Nội,Huyện Thanh Trì,Xã Đại áng,20.911533,105.823159,"20.896985,105.80615 – 20.924947,105.83411","Đại Áng, Thanh Trì, Hà Nội, Vietnam"
Thành phố Hà Nội,Huyện Thường Tín,Xã Duyên Thái,20.898676,105.867195,"20.888535,105.85354 – 20.909082,105.879493","Duyên Thái, Thường Tín, Hà Nội, Vietnam"
Thành phố Hà Nội,Huyện Thường Tín,Xã Khánh Hà,20.890974,105.826094,"20.882521,105.812625 – 20.903409,105.837361","Khánh Hà, Thường Tín, Hà Nội, Vietnam"
Thành phố Hà Nội,Huyện Thường Tín,Xã Ninh Sở,20.897006,105.884813,"20.883142,105.8746 – 20.912239,105.899856","Ninh Sở, Hà Nội, Vietnam"
Thành phố Hà Nội,Huyện Thường Tín,Xã Tô Hiệu,20.803758,105.890686,"20.7901,105.872412 – 20.817019,105.901551","Tô Hiệu, Thường Tín, Hà Nội, Vietnam"
Thành phố Hà Nội,Huyện Thường Tín,Xã Vạn Nhất,20.794698,105.911424,"20.770212,105.896415 – 20.821703,105.922942","Vạn Nhất, Thường Tín, Hanoi, Vietnam"
Thành phố Hà Nội,Huyện Thạch Thất,Xã Bình Yên,21.042326,105.541576,"21.023788,105.512491 – 21.056191,105.566868","Bình Yên, Thạch Thất, Hanoi, Vietnam"
Thành phố Hà Nội,Huyện Thạch Thất,Xã Hạ Bằng,21.001666,105.557696,"20.997102,105.551491 – 21.005836,105.561104","Hạ Bằng, Thạch Thất, Hanoi, Vietnam"
Thành phố Hà Nội,Huyện Thạch Thất,Xã Quang Trung,21.023565,105.611546,"21.002336,105.593313 – 21.037268,105.627477","Quang Trung, Thạch Thất, Hanoi, Vietnam"
Thành phố Hà Nội,Huyện Thạch Thất,Xã Thạch Hòa,20.998611,105.522507,"20.971834,105.471038 – 21.039361,105.54971","Thạch Hòa, Thạch Thất, Hanoi, Vietnam"
Thành phố Hà Nội,Huyện Thạch Thất,Xã Tiến Xuân,20.966544,105.482968,"20.945088,105.441113 – 21.004394,105.504026","Tiến Xuân, Thạch Thất, Hà Nội, Vietnam"
Thành phố Hà Nội,Huyện Thạch Thất,Xã Tân Xã,21.02777,105.557696,"21.022262,105.551834 – 21.030914,105.563164","Tân Xã, Thạch Thất, Hà Nội, Vietnam"
Thành phố Hà Nội,Huyện Đan Phượng,Xã Hồng Hà,21.133525,105.682312,"21.113088,105.661054 – 21.148874,105.704141","Hồng Hà, Đan Phượng, Hà Nội, Vietnam"
Thành phố Hà Nội,Huyện Đan Phượng,Xã Liên Hà,21.110906,105.709081,"21.101177,105.704269 – 21.134384,105.730856","Liên Hà, Đan Phượng, Hà Nội, Vietnam"
Thành phố Hà Nội,Huyện Đan Phượng,Xã Liên Hồng,21.122333,105.708713,"21.110385,105.692596 – 21.140008,105.721972","Liên Hồng, Hà Nội, Vietnam"
Thành phố Hà Nội,Huyện Đan Phượng,Xã Liên Trung,21.108517,105.732183,"21.096602,105.71311 – 21.124247,105.741434","Liên Trung, Hà Nội, Vietnam"
Thành phố Hà Nội,Huyện Đan Phượng,Xã Thọ An,21.134221,105.644185,"21.114249,105.624125 – 21.154998,105.652814","Thọ An, Đan Phượng, Hà Nội, Vietnam"
Thành phố Hà Nội,Huyện Đan Phượng,Xã Thọ Xuân,21.12207,105.65005,"21.112047,105.638952 – 21.152156,105.664015","Thọ Xuân, Đan Phượng, Hà Nội, Vietnam"
Thành phố Hà Nội,Huyện Đan Phượng,Xã Trung Châu,21.126211,105.667647,"21.119313,105.656054 – 21.150895,105.676482","Trung Châu, Đan Phượng, Hà Nội, Vietnam"
Thành phố Hà Nội,Huyện Đan Phượng,Xã Tân Lập,21.081192,105.71458,"21.070805,105.696802 – 21.099795,105.727787","Tân Lập, Đan Phượng, Hà Nội, Vietnam"
Thành phố Hà Nội,Huyện Đông Anh,Thị trấn Đông Anh,21.161114,105.84958,"21.126058,105.832179 – 21.174688,105.862284","Đông Anh, Hanoi, Vietnam"
Thành phố Hà Nội,Huyện Đông Anh,Xã Dục Tú,21.113441,105.893622,"21.091708,105.878956 – 21.135925,105.921078","Dục Tú, Đông Anh, Hà Nội, Vietnam"
Thành phố Hà Nội,Huyện Đông Anh,Xã Hải Bối,21.11081,105.799677,"21.09397,105.783899 – 21.123276,105.8166","Hải Bối, Đông Anh, Hà Nội, Vietnam"
Thành phố Hà Nội,Huyện Đông Anh,Xã Kim Chung,21.124635,105.776198,"21.113428,105.76242 – 21.151916,105.789886","Kim Chung, Đông Anh, Hà Nội, Vietnam"
Thành phố Hà Nội,Huyện Đông Anh,Xã Kim Nỗ,21.137173,105.796742,"21.118632,105.785165 – 21.154277,105.809455","Kim Nỗ, Đông Anh, Hà Nội, Vietnam"
Thành phố Hà Nội,Huyện Đông Anh,Xã Liên Hà,21.148207,105.893622,"21.126018,105.880995 – 21.164243,105.910263","Liên Hà, Đông Anh, Hà Nội, Vietnam"
Thành phố Hà Nội,Huyện Đông Anh,Xã Nguyên Khê,21.179623,105.837837,"21.161241,105.815549 – 21.190464,105.859001","Nguyên Khê, Đông Anh, Hà Nội, Vietnam"
Thành phố Hà Nội,Huyện Đông Anh,Xã Tiên Dương,21.153823,105.834901,"21.126619,105.818639 – 21.168525,105.846105","Tiên Dương, Đông Anh, Hà Nội, Vietnam"
Thành phố Hà Nội,Huyện Đông Anh,Xã Tàm Xá,21.095867,105.834901,"21.079655,105.822072 – 21.114649,105.847907","Tàm Xá, Đông Anh, Hà Nội, Vietnam"
Thành phố Hà Nội,Huyện Đông Anh,Xã Uy Nỗ,21.143167,105.855451,"21.120574,105.844023 – 21.167004,105.874407","Uy Nỗ, Đông Anh, Hà Nội, Vietnam"
Thành phố Hà Nội,Huyện Đông Anh,Xã Việt Hùng,21.140921,105.87894,"21.117812,105.862863 – 21.162002,105.895393","Việt Hùng, Đông Anh, Hà Nội, Vietnam"
Thành phố Hà Nội,Huyện Đông Anh,Xã Vĩnh Ngọc,21.119664,105.815357,"21.091227,105.805979 – 21.130502,105.846191","Vĩnh Ngọc, Đông Anh, Hà Nội, Vietnam"
Thành phố Hà Nội,Huyện Đông Anh,Xã Xuân Canh,21.082904,105.847527,"21.072968,105.838294 – 21.118552,105.862455","Xuân Canh, Đông Anh, Hà Nội, Vietnam"
Thành phố Hà Nội,Huyện Đông Anh,Xã Xuân Nộn,21.185227,105.870132,"21.156959,105.849195 – 21.206759,105.89108","Xuân Nộn, Đông Anh, Hà Nội, Vietnam"
Thành phố Hà Nội,Huyện Đông Anh,Xã Đại Mạch,21.118372,105.7607,"21.098754,105.731864 – 21.137266,105.768299","Đại Mạch, Đông Anh, Hà Nội, Vietnam"
Thành phố Hà Nội,Quận Ba Đình,Phường Cống Vị,21.03528,105.809216,"21.031335,105.804777 – 21.037841,105.814554","Cống Vị, Ba Đình, Hà Nội, Vietnam"
Thành phố Hà Nội,Quận Ba Đình,Phường Kim Mã,21.031644,105.824627,"21.027719,105.816922 – 21.033638,105.831428","Kim Ma, Ba Đình, Hanoi, Vietnam"
Thành phố Hà Nội,Quận Ba Đình,Phường Ngọc Hà,21.037816,105.828296,"21.03523,105.820313 – 21.041989,105.836191","Ngọc Hà, Ba Đình, Hanoi, Vietnam"
Thành phố Hà Nội,Quận Ba Đình,Phường Ngọc Khánh,21.030139,105.80995,"21.024855,105.801269 – 21.034619,105.817759","Ngọc Khánh, Ba Đình, Hanoi, Vietnam"
Thành phố Hà Nội,Quận Ba Đình,Phường Thành Công,21.020889,105.81582,"21.016102,105.810555 – 21.024875,105.821005","Thành Công, Ba Đình, Hanoi, Vietnam"
Thành phố Hà Nội,Quận Ba Đình,Phường Điện Biên,21.033148,105.839304,"21.0282,105.830179 – 21.03916,105.844452","Điện Biên, Ba Đình, Hanoi, Vietnam"
Thành phố Hà Nội,Quận Ba Đình,Phường Đội Cấn,21.035336,105.823893,"21.032947,105.82013 – 21.037413,105.834121","Đội Cấn, Ba Đình, Hà Nội, Vietnam"
Thành phố Hà Nội,Quận Bắc Từ Liêm,Phường Cổ Nhuế 1,21.050608,105.790972,"21.043962,105.770796 – 21.064277,105.795127","Cổ Nhuế 1, Từ Liêm, Hanoi, Vietnam"
Thành phố Hà Nội,Quận Bắc Từ Liêm,Phường Cổ Nhuế 2,21.061721,105.776922,"21.054587,105.755253 – 21.074384,105.784532","Cổ Nhuế 2, Bac Tu Liem, Hanoi, Vietnam"
Thành phố Hà Nội,Quận Bắc Từ Liêm,Phường Minh Khai,21.057961,105.74632,"21.043434,105.732658 – 21.076812,105.761497","Minh Khai, Bac Tu Liem, Hanoi, Vietnam"
Thành phố Hà Nội,Quận Bắc Từ Liêm,Phường Phúc Diễn,21.04729,105.751255,"21.038064,105.742979 – 21.059712,105.761476","Phúc Diễn, Từ Liêm, Hanoi, Vietnam"
Thành phố Hà Nội,Quận Bắc Từ Liêm,Phường Thụy Phương,21.083304,105.768861,"21.069178,105.7586 – 21.097153,105.780573","Thụy Phương, Từ Liêm, Hanoi, Vietnam"
Thành phố Hà Nội,Quận Bắc Từ Liêm,Phường Tây Tựu,21.067934,105.732183,"21.055667,105.717058 – 21.082838,105.751395","Tay Tuu, Từ Liêm, Hanoi, Vietnam"
Thành phố Hà Nội,Quận Bắc Từ Liêm,Phường Xuân Tảo,21.063409,105.795274,"21.050571,105.785841 – 21.074973,105.804981","Xuân Tảo, Bắc Từ Liêm, Hà Nội, Vietnam"
Thành phố Hà Nội,Quận Bắc Từ Liêm,Phường Xuân Đỉnh,21.071604,105.79029,"21.062475,105.778768 – 21.084684,105.801347","Xuân Đỉnh, Bac Tu Liem, Hanoi, Vietnam"
Thành phố Hà Nội,Quận Bắc Từ Liêm,Phường Đông Ngạc,21.091917,105.785002,"21.081197,105.776818 – 21.097914,105.796001","Đông Ngạc, Hanoi, Vietnam"
Thành phố Hà Nội,Quận Cầu Giấy,Phường Dịch Vọng,21.034707,105.792339,"21.026307,105.787839 – 21.042327,105.798474","Dich Vong, Cầu Giấy, Hanoi, Vietnam"
Thành phố Hà Nội,Quận Cầu Giấy,Phường Dịch Vọng Hậu,21.033953,105.785002,"21.026237,105.779817 – 21.044558,105.790685","Dịch Vọng Hậu, Cầu Giấy, Hà Nội, Vietnam"
Thành phố Hà Nội,Quận Cầu Giấy,Phường Mai Dịch,21.039566,105.774071,"21.03093,105.767591 – 21.049563,105.781812","Mai Dịch, Cầu Giấy, Hanoi, Vietnam"
Thành phố Hà Nội,Quận Cầu Giấy,Phường Nghĩa Đô,21.045464,105.801145,"21.038016,105.794145 – 21.059271,105.809063","Nghĩa Đô, Cầu Giấy, Hà Nội, Vietnam"
Thành phố Hà Nội,Quận Cầu Giấy,Phường Quan Hoa,21.03677,105.801145,"21.029111,105.795121 – 21.041389,105.806451","Quan Hoa, Cầu Giấy, Hanoi, Vietnam"
Thành phố Hà Nội,Quận Cầu Giấy,Phường Trung Hòa,21.010153,105.798835,"21.000693,105.788571 – 21.017494,105.813478","Trung Hoà, Cầu Giấy, Hanoi, Vietnam"
Thành phố Hà Nội,Quận Cầu Giấy,Phường Yên Hòa,21.021804,105.790872,"21.01445,105.783239 – 21.030654,105.802841","Yen Hoa, Cầu Giấy, Hanoi, Vietnam"
Thành phố Hà Nội,Quận Hai Bà Trưng,Phường Bạch Đằng,21.013251,105.865727,"21.008265,105.858775 – 21.019848,105.870931","Bạch Đằng, Hai Bà Trưng District, Hanoi, Vietnam"
Thành phố Hà Nội,Quận Hai Bà Trưng,Phường Lê Đại Hành,21.012307,105.845176,"21.007679,105.841341 – 21.017294,105.851255","Le Dai Hanh, Hai Bà Trưng District, Hanoi, Vietnam"
Thành phố Hà Nội,Quận Hai Bà Trưng,Phường Minh Khai,20.99591,105.857653,"20.99262,105.850884 – 20.999026,105.862305","Minh Khai, Hai Bà Trưng District, Hanoi, Vietnam"
Thành phố Hà Nội,Quận Hai Bà Trưng,Phường Nguyễn Du,21.016951,105.849299,"21.013376,105.84073 – 21.021365,105.851477","Nguyen Du, Hai Bà Trưng District, Hanoi, Vietnam"
Thành phố Hà Nội,Quận Hai Bà Trưng,Phường Phạm Đình Hổ,21.016192,105.857653,"21.01142,105.851163 – 21.019137,105.861002","Pham Dinh Ho, Hai Bà Trưng District, Hanoi, Vietnam"
Thành phố Hà Nội,Quận Hai Bà Trưng,Phường Thanh Lương,21.006898,105.8716,"21.000721,105.86069 – 21.01151,105.883398","Thanh Lương, Hai Bà Trưng District, Hanoi, Vietnam"
Thành phố Hà Nội,Quận Hai Bà Trưng,Phường Thanh Nhàn,21.005396,105.856919,"21.00193,105.850906 – 21.009092,105.861533","Thanh Nhàn, Hai Bà Trưng District, Hanoi, Vietnam"
Thành phố Hà Nội,Quận Hai Bà Trưng,Phường Trương Định,20.993782,105.846688,"20.991032,105.844681 – 21.000107,105.852242","Trương Định, Hai Bà Trưng, Hà Nội, Vietnam"
Thành phố Hà Nội,Quận Hai Bà Trưng,Phường Vĩnh Tuy,20.998485,105.868664,"20.992294,105.8615 – 21.003508,105.878313","Vinh Tuy, Hai Bà Trưng District, Hanoi, Vietnam"
Thành phố Hà Nội,Quận Hai Bà Trưng,Phường Đồng Tâm,20.99676,105.843272,"20.991333,105.841148 – 21.005095,105.848637","Đồng Tâm, Hai Bà Trưng District, Hanoi, Vietnam"
Thành phố Hà Nội,Quận Hoàn Kiếm,Phường Cửa Nam,21.025228,105.842607,"21.020339,105.840976 – 21.029352,105.845718","Cua Nam, Hoàn Kiếm, Hanoi, Vietnam"
Thành phố Hà Nội,Quận Hoàn Kiếm,Phường Cửa Đông,21.032917,105.845543,"21.030033,105.843833 – 21.03523,105.847558","Cửa Đông, Hoàn Kiếm, Hà Nội, Vietnam"
Thành phố Hà Nội,Quận Hoàn Kiếm,Phường Hàng Bông,21.028898,105.84591,"21.025922,105.842993 – 21.031475,105.847746","Hàng Bông, Hoàn Kiếm, Hà Nội, Vietnam"
Thành phố Hà Nội,Quận Hoàn Kiếm,Phường Hàng Trống,21.028479,105.850314,"21.025211,105.847398 – 21.032008,105.853583","Hang Trong, Hoàn Kiếm, Hanoi, Vietnam"
Thành phố Hà Nội,Quận Hoàn Kiếm,Phường Tràng Tiền,21.025163,105.854717,"21.022577,105.849495 – 21.027955,105.860127","Trang Tien, Hoàn Kiếm, Hanoi, Vietnam"
Thành phố Hà Nội,Quận Hoàn Kiếm,Phường Đồng Xuân,21.039212,105.849835,"21.036662,105.847194 – 21.040793,105.852901","Dong Xuan, Hoàn Kiếm, Hanoi, Vietnam"
Thành phố Hà Nội,Quận Hoàng Mai,Phường Giáp Bát,20.983611,105.84224,"20.976477,105.836657 – 20.991493,105.845665","Giáp Bát, Hoàng Mai, Hà Nội, Vietnam"
Thành phố Hà Nội,Quận Hoàng Mai,Phường Hoàng Liệt,20.962532,105.839913,"20.95132,105.816836 – 20.97226,105.857885","Hoàng Liệt, Hoàng Mai, Hanoi, Vietnam"
Thành phố Hà Nội,Quận Hoàng Mai,Phường Hoàng Văn Thụ,20.984836,105.859855,"20.978791,105.850482 – 20.994037,105.869987","Hoàng Văn Thụ, Hoàng Mai, Hà Nội, Vietnam"
Thành phố Hà Nội,Quận Hoàng Mai,Phường Lĩnh Nam,20.977001,105.896559,"20.961079,105.869665 – 20.990972,105.909147","Lĩnh Nam, Hoàng Mai, Hà Nội, Vietnam"
Thành phố Hà Nội,Quận Hoàng Mai,Phường Mai Động,20.990867,105.864993,"20.986274,105.857713 – 20.996041,105.871478","Mai Động, Hoàng Mai, Hanoi, Vietnam"
Thành phố Hà Nội,Quận Hoàng Mai,Phường Thanh Trì,20.994941,105.890686,"20.986124,105.875888 – 21.003773,105.909029","Thanh Trì, Hoàng Mai, Hà Nội, Vietnam"
Thành phố Hà Nội,Quận Hoàng Mai,Phường Thịnh Liệt,20.975114,105.855451,"20.964586,105.838251 – 20.985423,105.860846","Thinh Liet, Hoàng Mai, Hanoi, Vietnam"
Thành phố Hà Nội,Quận Hoàng Mai,Phường Trần Phú,20.972324,105.884813,"20.955468,105.870867 – 20.981516,105.897131","Trần Phú, Hoàng Mai, Hà Nội, Vietnam"
Thành phố Hà Nội,Quận Hoàng Mai,Phường Tân Mai,20.983687,105.848156,"20.977925,105.845268 – 20.987526,105.853787","Tân Mai, Hoàng Mai, Hà Nội, Vietnam"
Thành phố Hà Nội,Quận Hoàng Mai,Phường Tương Mai,20.98857,105.851048,"20.980474,105.842908 – 20.994358,105.856125","Tương Mai, Hoàng Mai, Hanoi, Vietnam"
Thành phố Hà Nội,Quận Hoàng Mai,Phường Vĩnh Hưng,20.989235,105.874536,"20.980093,105.867734 – 20.994658,105.883344","Vĩnh Hưng, Hoàng Mai, Hà Nội, Vietnam"
Thành phố Hà Nội,Quận Hoàng Mai,Phường Yên Sở,20.961853,105.873068,"20.947172,105.851684 – 20.982638,105.893354","Yen So, Hoàng Mai, Hanoi, Vietnam"
Thành phố Hà Nội,Quận Hoàng Mai,Phường Đại Kim,20.973969,105.821691,"20.965928,105.80718 – 20.984,105.840268","Dai Kim, Hoàng Mai, Hanoi, Vietnam"
Thành phố Hà Nội,Quận Hoàng Mai,Phường Định Công,20.983137,105.831965,"20.973352,105.818135 – 20.994428,105.83927","Dinh Cong, Hoàng Mai, Hanoi, Vietnam"
Thành phố Hà Nội,Quận Hà Đông,Phường Dương Nội,20.979868,105.743919,"20.962562,105.72959 – 20.996782,105.759544","Duong Noi, Hà Đông, Hanoi, Vietnam"
Thành phố Hà Nội,Quận Hà Đông,Phường Hà Cầu,20.963643,105.777665,"20.958294,105.77008 – 20.971067,105.786946","Hà Cầu, Hà Đông, Hanoi, Vietnam"
Thành phố Hà Nội,Quận Hà Đông,Phường Kiến Hưng,20.952807,105.785002,"20.938926,105.769683 – 20.963343,105.804248","Kiến Hưng, Hà Đông, Hà Nội, Vietnam"
Thành phố Hà Nội,Quận Hà Đông,Phường La Khê,20.972411,105.761525,"20.958239,105.750452 – 20.980715,105.768514","La Khê, Hà Đông, Hanoi, Vietnam"
Thành phố Hà Nội,Quận Hà Đông,Phường Mộ Lao,20.983375,105.783535,"20.97592,105.777274 – 20.988358,105.793228","Mộ Lao, Hà Đông, Hà Nội, Vietnam"
Thành phố Hà Nội,Quận Hà Đông,Phường Phú La,20.956056,105.765927,"20.9513,105.753579 – 20.965207,105.772376","Phú La, Hà Đông, Hanoi, Vietnam"
Thành phố Hà Nội,Quận Hà Đông,Phường Phú Lương,20.93708,105.767394,"20.924075,105.756626 – 20.95386,105.786339","Phú Lương, Hà Đông, Hanoi, Vietnam"
Thành phố Hà Nội,Quận Hà Đông,Phường Quang Trung,20.970207,105.773856,"20.955543,105.754298 – 20.977294,105.784682","Quang Trung, Hà Đông, Hanoi, Vietnam"
Thành phố Hà Nội,Quận Hà Đông,Phường Văn Quán,20.979645,105.792339,"20.970877,105.780122 – 20.986279,105.799938","Văn Quán, Hà Đông, Hà Nội, Vietnam"
Thành phố Hà Nội,Quận Hà Đông,Phường Yên Nghĩa,20.954059,105.740985,"20.933936,105.711007 – 20.965567,105.755317","Yên Nghĩa, Hà Đông, Hà Nội, Vietnam"
Thành phố Hà Nội,Quận Hà Đông,Phường Đồng Mai,20.930872,105.740985,"20.910455,105.725985 – 20.942042,105.751079","Đồng Mai, Hà Đông, Hà Nội, Vietnam"
Thành phố Hà Nội,Quận Long Biên,Phường Bồ Đề,21.040126,105.874761,"21.024802,105.856978 – 21.046811,105.88608","Bo De, Long Biên, Hanoi, Vietnam"
Thành phố Hà Nội,Quận Long Biên,Phường Cự Khối,21.005969,105.896559,"20.994378,105.88342 – 21.017655,105.920413","Cự Khối, Long Biên, Hanoi, Vietnam"
Thành phố Hà Nội,Quận Long Biên,Phường Gia Thụy,21.048956,105.886281,"21.043091,105.877371 – 21.056581,105.895849","Gia Thụy, Long Biên, Hanoi, Vietnam"
Thành phố Hà Nội,Quận Long Biên,Phường Giang Biên,21.067457,105.920053,"21.055106,105.906444 – 21.077693,105.932837","Giang Biên, Long Biên, Hà Nội, Vietnam"
Thành phố Hà Nội,Quận Long Biên,Phường Long Biên,21.022857,105.88858,"21.003773,105.866284 – 21.034914,105.908901","Long Biên, Hanoi, Vietnam"
Thành phố Hà Nội,Quận Long Biên,Phường Ngọc Thụy,21.058858,105.858387,"21.04235,105.843186 – 21.081056,105.881617","Ngoc Thuy, Long Biên, Hanoi, Vietnam"
Thành phố Hà Nội,Quận Long Biên,Phường Phúc Lợi,21.043721,105.925927,"21.026378,105.912269 – 21.056268,105.939038","Phúc Lợi, Long Biên, Hà Nội, Vietnam"
Thành phố Hà Nội,Quận Long Biên,Phường Phúc Đồng,21.040712,105.90472,"21.029167,105.880477 – 21.051612,105.912623","Phúc Đồng, Long Biên, Hanoi, Vietnam"
Thành phố Hà Nội,Quận Long Biên,Phường Thượng Thanh,21.065501,105.888314,"21.049389,105.871006 – 21.079855,105.908471","Thượng Thanh, Long Biên, Hanoi, Vietnam"
Thành phố Hà Nội,Quận Long Biên,Phường Thạch Bàn,21.02167,105.914179,"21.009357,105.90021 – 21.032346,105.937933","Thach Ban, Long Biên, Hanoi, Vietnam"
Thành phố Hà Nội,Quận Long Biên,Phường Việt Hưng,21.057554,105.902432,"21.040798,105.889948 – 21.06686,105.915939","Việt Hưng, Long Biên, Hà Nội, Vietnam"
Thành phố Hà Nội,Quận Long Biên,Phường Đức Giang,21.070169,105.906837,"21.055111,105.888483 – 21.077693,105.913498","Duc Giang, Long Biên, Hanoi, Vietnam"
Thành phố Hà Nội,Quận Nam Từ Liêm,Phường Mễ Trì,21.005527,105.779133,"20.99259,105.767892 – 21.020286,105.793276","Mễ Trì, Hà Nội, Vietnam"
Thành phố Hà Nội,Quận Nam Từ Liêm,Phường Mỹ Đình 1,21.022161,105.771796,"21.015612,105.754008 – 21.025827,105.784071","My Dinh 1, Nam Từ Liêm, Hanoi, Vietnam"
Thành phố Hà Nội,Quận Nam Từ Liêm,Phường Mỹ Đình 2,21.027957,105.771796,"21.023624,105.762677 – 21.039506,105.78392","My Dinh 2, Từ Liêm, Hanoi, Vietnam"
Thành phố Hà Nội,Quận Nam Từ Liêm,Phường Phú Đô,21.012433,105.767394,"20.996672,105.753761 – 21.019588,105.773556","Phu Do, Nam Từ Liêm, Hanoi, Vietnam"
Thành phố Hà Nội,Quận Nam Từ Liêm,Phường Trung Văn,20.989171,105.783535,"20.984556,105.763879 – 21.000463,105.798648","Trung Van, Từ Liêm, Hanoi, Vietnam"
Thành phố Hà Nội,Quận Nam Từ Liêm,Phường Tây Mỗ,21.008853,105.743919,"20.993576,105.729643 – 21.023323,105.756342","Tây Mỗ, Từ Liêm, Hà Nội, Vietnam"
Thành phố Hà Nội,Quận Nam Từ Liêm,Phường Đại Mỗ,20.989801,105.761525,"20.980114,105.745726 – 21.015772,105.780444","Dai Mo, Nam Từ Liêm, Hanoi, Vietnam"
Thành phố Hà Nội,Quận Thanh Xuân,Phường Hạ Đình,20.985961,105.810962,"20.978454,105.801956 – 20.998319,105.818209","Hạ Đình, Thanh Xuân, Hà Nội, Vietnam"
Thành phố Hà Nội,Quận Thanh Xuân,Phường Khương Trung,20.99715,105.821691,"20.991724,105.81431 – 21.003152,105.828831","Khuong Trung, Thanh Xuân, Hanoi, Vietnam"
Thành phố Hà Nội,Quận Thanh Xuân,Phường Khương Đình,20.988736,105.818756,"20.980895,105.813124 – 20.99579,105.827565","Khương Đình, Thanh Xuân, Hà Nội, Vietnam"
Thành phố Hà Nội,Quận Thanh Xuân,Phường Nhân Chính,21.004615,105.80408,"20.996066,105.791549 – 21.008871,105.815951","Nhân Chính, Thanh Xuân, Hà Nội, Vietnam"
Thành phố Hà Nội,Quận Thanh Xuân,Phường Phương Liệt,20.992582,105.839304,"20.984136,105.832956 – 20.998975,105.842843","Phương Liệt, Thanh Xuân, Hà Nội, Vietnam"
Thành phố Hà Nội,Quận Thanh Xuân,Phường Thanh Xuân Bắc,20.991696,105.799805,"20.983329,105.794204 – 20.998685,105.804327","Thanh Xuan Bac, Thanh Xuân, Hanoi, Vietnam"
Thành phố Hà Nội,Quận Thanh Xuân,Phường Thanh Xuân Trung,20.995921,105.80408,"20.988618,105.799595 – 21.002681,105.811955","Thanh Xuân Trung, Thanh Xuân, Hà Nội, Vietnam"
Thành phố Hà Nội,Quận Thanh Xuân,Phường Thượng Đình,21.000605,105.81582,"20.992274,105.807867 – 21.006317,105.818424","Thuong Dinh, Thanh Xuân, Hanoi, Vietnam"
Thành phố Hà Nội,Quận Tây Hồ,Phường Nhật Tân,21.07642,105.826094,"21.06608,105.811043 – 21.088985,105.838251","Nhật Tân, Tây Hồ, Hà Nội, Vietnam"
Thành phố Hà Nội,Quận Tây Hồ,Phường Phú Thượng,21.083891,105.808482,"21.071886,105.791902 – 21.098034,105.825763","Phú Thượng, Tây Hồ, Hanoi, Vietnam"
Thành phố Hà Nội,Quận Tây Hồ,Phường Quảng An,21.063591,105.826044,"21.048298,105.814691 – 21.073608,105.835912","Quang An, Tây Hồ, Hanoi, Vietnam"
Thành phố Hà Nội,Quận Tây Hồ,Phường Thụy Khuê,21.046133,105.824627,"21.039551,105.81336 – 21.050741,105.836513","Thuy Khue, Tây Hồ, Hanoi, Vietnam"
Thành phố Hà Nội,Quận Tây Hồ,Phường Tứ Liên,21.069508,105.837837,"21.055927,105.828381 – 21.080255,105.846255","Tứ Liên, Tây Hồ, Hanoi, Vietnam"
Thành phố Hà Nội,Quận Tây Hồ,Phường Xuân La,21.059676,105.80408,"21.047216,105.794799 – 21.073849,105.815699","Xuân La, Tây Hồ, Hanoi, Vietnam"
Thành phố Hà Nội,Quận Tây Hồ,Phường Yên Phụ,21.053431,105.839304,"21.046535,105.830698 – 21.061514,105.849195","Yên Phụ, Tây Hồ, Hà Nội, Vietnam"
Thành phố Hà Nội,Quận Đống Đa,Phường Cát Linh,21.028983,105.829764,"21.023103,105.819838 – 21.031991,105.836036","Cat Linh, Đống Đa, Hanoi, Vietnam"
Thành phố Hà Nội,Quận Đống Đa,Phường Hàng Bột,21.021739,105.829764,"21.019157,105.827978 – 21.025877,105.835869","Hàng Bột, Đống Đa, Hanoi, Vietnam"
Thành phố Hà Nội,Quận Đống Đa,Phường Láng Hạ,21.015372,105.812885,"21.008506,105.805239 – 21.024926,105.819004","Lang Ha, Đống Đa, Hanoi, Vietnam"
Thành phố Hà Nội,Quận Đống Đa,Phường Nam Đồng,21.014356,105.831231,"21.00968,105.82631 – 21.018206,105.834126","Nam Dong, Đống Đa, Hanoi, Vietnam"
Thành phố Hà Nội,Quận Đống Đa,Phường Phương Liên Trung Tự,21.00987,105.832699,"21.007059,105.830003 – 21.012824,105.836014","Trung Tự, Đống Đa, Hà Nội, Vietnam"
Thành phố Hà Nội,Quận Đống Đa,Phường Phương Mai,21.001275,105.839304,"20.99728,105.833101 – 21.009049,105.84272","Phuong Mai, Đống Đa, Hanoi, Vietnam"
Thành phố Hà Nội,Quận Đống Đa,Phường Quang Trung,21.012015,105.82536,"21.006472,105.822418 – 21.017034,105.831889","Quang Trung, Đống Đa, Hanoi, Vietnam"
Thành phố Hà Nội,Quận Đống Đa,Phường Trung Liệt,21.010845,105.822425,"21.004417,105.815938 – 21.017244,105.830644","Trung Liệt, Đống Đa, Hanoi, Vietnam"
Thành phố Hà Nội,Quận Đống Đa,Phường Văn Miếu Quốc Tử Giám,21.028146,105.83913,"21.021102,105.828748 – 21.030423,105.841564","Văn Miếu – Quốc Tử Giám, Đống Đa, Hanoi, Vietnam"
Thành phố Hà Nội,Quận Đống Đa,Phường Ô Chợ Dừa,21.020054,105.824627,"21.013939,105.817236 – 21.02831,105.833842","Ô Chợ Dừa, Đống Đa, Hà Nội, Vietnam"
Thành phố Hà Nội,Thị xã Sơn Tây,Phường Sơn Lộc,21.114731,105.496153,"21.111386,105.484629 – 21.130121,105.508683","Son Loc, Son Tay, Hanoi, Vietnam"
Thành phố Hà Nội,Thị xã Sơn Tây,Phường Trung Hưng,21.131319,105.504944,"21.127699,105.501108 – 21.135235,105.509949","Trung Hưng, Son Tay, Hanoi, Vietnam"
Thành phố Hà Nội,Thị xã Sơn Tây,Xã Cổ Đông,21.045599,105.506409,"21.020914,105.457764 – 21.091788,105.53793","Cổ Đông, Sơn Tây, Hà Nội, Vietnam"
Thành phố Hà Nội,Thị xã Sơn Tây,Xã Thanh Mỹ,21.130107,105.471249,"21.100756,105.457034 – 21.143991,105.491195","Thanh Mỹ, Sơn Tây, Hà Nội, Vietnam"
Thành phố Hải Phòng,Huyện An Lão,Thị trấn Trường Sơn,20.816439,106.596713,"20.805045,106.583133 – 20.826686,106.615351","tt. Trường Sơn, An Lão, Hải Phòng, Vietnam"
Thành phố Hải Phòng,Huyện An Lão,Xã Thái Sơn,20.787551,106.596713,"20.771664,106.582253 – 20.812466,106.617079","Thái Sơn, An Lão, Hải Phòng, Vietnam"
Thành phố Hải Phòng,Huyện Kiến Thụy,Xã Kiến Hưng,20.721018,106.668318,"20.719774,106.666899 – 20.722472,106.669597","PMC9+C84, Cao Bộ, Kiến Thụy, Hải Phòng, Vietnam"
Thành phố Hải Phòng,Huyện Kiến Thụy,Xã Đoàn Xá,20.702533,106.696929,"20.686101,106.678276 – 20.720073,106.714175","Đoàn Xá, Kiến Thụy, Hải Phòng, Vietnam"
Thành phố Hải Phòng,Huyện Tiên Lãng,Xã Tân Minh,20.692514,106.593766,"20.612678,106.486065 – 20.808487,106.707422","Tiên Lãng, Hai Phong, Vietnam"
Thành phố Hải Phòng,Huyện Vĩnh Bảo,Xã Hòa Bình,20.666526,106.5643,"20.645618,106.543195 – 20.681319,106.584355","Hòa Bình, Vĩnh Bảo, Hai Phong, Vietnam"
Thành phố Hải Phòng,Quận An Dương,Phường An Hải,20.849938,106.6085,"20.834921,106.589621 – 20.860043,106.623871","Đặng Cương, An Dương, Hai Phong, Vietnam"
Thành phố Hải Phòng,Quận An Dương,Phường Lê Lợi,20.858053,106.584926,"20.847698,106.562218 – 20.868389,106.606553","Lê Lợi, An Dương, Hai Phong, Vietnam"
Thành phố Hải Phòng,Quận An Dương,Phường Lê Thiện,20.930905,106.549568,"20.903647,106.540028 – 20.94829,106.572735","Lê Thiện, An Dương, Hai Phong, Vietnam"
Thành phố Hải Phòng,Quận An Dương,Phường Tân Tiến,20.893309,106.579032,"20.877892,106.56664 – 20.910095,106.599317","Tân Tiến, An Dương, Hai Phong, Vietnam"
Thành phố Hải Phòng,Quận An Dương,Phường Đồng Thái,20.847597,106.632078,"20.825756,106.613897 – 20.86131,106.656128","Đồng Thái, An Dương, Hai Phong, Vietnam"
Thành phố Hải Phòng,Quận Dương Kinh,Phường Anh Dũng,20.800125,106.702825,"20.779949,106.692824 – 20.828291,106.725869","Anh Dũng, Dương Kinh, Hải Phòng, Vietnam"
Thành phố Hải Phòng,Quận Dương Kinh,Phường Hải Thành,20.786224,106.726413,"20.764541,106.706198 – 20.805426,106.748099","Hải Thành, Dương Kinh District, Hai Phong, Vietnam"
Thành phố Hải Phòng,Quận Dương Kinh,Phường Tân Thành,20.762189,106.764748,"20.741747,106.73986 – 20.775776,106.794834","Tân Thành, Dương Kinh District, Hai Phong, Vietnam"
Thành phố Hải Phòng,Quận Hải An,Phường Nam Hải,20.830655,106.744105,"20.819787,106.72765 – 20.842148,106.755438","Nam Hai, Hải An, Hai Phong, Vietnam"
Thành phố Hải Phòng,Quận Hải An,Phường Đông Hải 2,20.817566,106.788342,"20.800027,106.749735 – 20.849834,106.830712","Đông Hải 2, Hải An, Hai Phong, Vietnam"
Thành phố Hải Phòng,Quận Hồng Bàng,Phường An Hưng,20.904281,106.584926,"20.895422,106.571426 – 20.922043,106.604872","An Hưng, An Dương, Hai Phong, Vietnam"
Thành phố Hải Phòng,Quận Hồng Bàng,Phường Đại Bản,20.922787,106.573139,"20.912238,106.550684 – 20.951418,106.602272","Đại Bản, An Dương, Hai Phong, Vietnam"
Thành phố Hải Phòng,Quận Kiến An,Phường Bắc Sơn,20.819717,106.636499,"20.813118,106.62151 – 20.829614,106.646883","Bắc Sơn, Kiến An, Hai Phong, Vietnam"
Thành phố Hải Phòng,Quận Kiến An,Phường Nam Sơn,20.805987,106.643867,"20.795777,106.631488 – 20.817179,106.659908","Nam Sơn, Kiến An, Hai Phong, Vietnam"
Thành phố Hải Phòng,Quận Kiến An,Phường Trần Thành Ngọ,20.80904,106.627657,"20.800511,106.619654 – 20.816377,106.633752","Trần Thành Ngọ, Kiến An, Hai Phong, Vietnam"
Thành phố Hải Phòng,Quận Kiến An,Phường Văn Đẩu,20.788072,106.649762,"20.772737,106.62578 – 20.805355,106.660616","Văn Đẩu, Kiến An, Hai Phong, Vietnam"
Thành phố Hải Phòng,Quận Kiến An,Phường Đồng Hòa,20.82156,106.661553,"20.812265,106.64918 – 20.833886,106.677482","Đồng Hòa, Kiến An, Hai Phong, Vietnam"
Thành phố Hải Phòng,Quận Lê Chân,Phường An Biên,20.853809,106.678503,"20.851453,106.675025 – 20.856165,106.683995","An Biên, Lê Chân, Hai Phong, Vietnam"
Thành phố Hải Phòng,Quận Lê Chân,Phường Trần Nguyên Hãn,20.848767,106.671133,"20.844454,106.667451 – 20.851628,106.673405","Trần Nguyên Hãn, Lê Chân, Hai Phong, Vietnam"
Thành phố Hải Phòng,Quận Lê Chân,Phường Vĩnh Niệm,20.828154,106.691903,"20.815229,106.666308 – 20.840614,106.696418","Vĩnh Niệm, Lê Chân, Hai Phong, Vietnam"
Thành phố Hải Phòng,Quận Ngô Quyền,Phường Cầu Đất,20.854665,106.684399,"20.851663,106.680926 – 20.856977,106.68628","Cau Dat, Ngô Quyền, Hai Phong, Vietnam"
Thành phố Hải Phòng,Quận Ngô Quyền,Phường Gia Viên,20.856671,106.693243,"20.854451,106.689713 – 20.859012,106.697459","Gia Viên, Ngô Quyền, Hai Phong, Vietnam"
Thành phố Hải Phòng,Quận Ngô Quyền,Phường Lạch Tray,20.84671,106.691769,"20.839952,106.685679 – 20.852856,106.697373","Lạch Tray, Ngô Quyền, Hai Phong, Vietnam"
Thành phố Hải Phòng,Quận Ngô Quyền,Phường Đông Khê,20.852105,106.702825,"20.846119,106.693779 – 20.859032,106.711675","Đông Khê, Ngô Quyền, Hai Phong, Vietnam"
Thành phố Hải Phòng,Quận Đồ Sơn,Phường Ngọc Xuyên,20.737916,106.776544,"20.703896,106.755867 – 20.746843,106.795349","Ngọc Xuyên, Đồ Sơn, Hai Phong, Vietnam"
Thành phố Hải Phòng,Quận Đồ Sơn,Phường Vạn Hương,20.693147,106.791291,"20.664389,106.764536 – 20.72212,106.819167","Vạn Hương, Đồ Sơn, Hai Phong, Vietnam"
Thành phố Hải Phòng,Thành phố Thủy Nguyên,Phường An Lư,20.904088,106.702825,"20.881835,106.692131 – 20.940465,106.722715","An Lư, Thủy Nguyên, Hai Phong, Vietnam"
Thành phố Hải Phòng,Thành phố Thủy Nguyên,Phường Hoa Động,20.89088,106.661553,"20.873571,106.648593 – 20.911826,106.672736","Hoa Động, Thủy Nguyên, Hai Phong, Vietnam"
Thành phố Hải Phòng,Thành phố Thủy Nguyên,Phường Lê Hồng Phong,20.916926,106.632078,"20.905235,106.6227 – 20.934977,106.644728","Kiền Bái, Thủy Nguyên, Hai Phong, Vietnam"
Thành phố Hải Phòng,Thành phố Thủy Nguyên,Phường Thủy Hà,20.914459,106.714618,"20.862467,106.704081 – 20.941864,106.738822","Thủy Triều, Thủy Nguyên, Hai Phong, Vietnam"
Thành phố Hải Phòng,Thành phố Thủy Nguyên,Xã Liên Xuân,20.993454,106.646815,"20.968453,106.621349 – 21.020321,106.674122","Liên Khê, Thủy Nguyên, Hai Phong, Vietnam"
Thành phố Hải Phòng,Thành phố Thủy Nguyên,Xã Quang Trung,20.936021,106.614394,"20.917009,106.597242 – 20.95387,106.634551","Cao Nhân, Thủy Nguyên, Hai Phong, Vietnam"
Thành phố Hồ Chí Minh,Huyện Bình Chánh,Xã An Phú Tây,10.688013,106.6085,"10.672455,106.592001 – 10.701773,106.623633","An Phú Tây, Bình Chánh, Ho Chi Minh City, Vietnam"
Thành phố Hồ Chí Minh,Huyện Bình Chánh,Xã Phạm Văn Hai,10.8149,106.528946,"10.762957,106.506156 – 10.873416,106.568216","Phạm Văn Hai, Bình Chánh, Hồ Chí Minh, Vietnam"
Thành phố Hồ Chí Minh,Huyện Bình Chánh,Xã Tân Kiên,10.717344,106.581462,"10.694569,106.565371 – 10.734381,106.604334","Tân Kiên, Bình Chánh, Ho Chi Minh City, Vietnam"
Thành phố Hồ Chí Minh,Huyện Cần Giờ,Xã An Thới Đông,10.554972,106.806039,"10.489922,106.742134 – 10.61822,106.872897","An Thới Đông, Cần Giờ, Hồ Chí Minh, Vietnam"
Thành phố Hồ Chí Minh,Quận 1,Phường Cầu Ông Lãnh,10.765545,106.696191,"10.761895,106.694278 – 10.769167,106.700399","Cầu Ông Lãnh, Quận 1, Hồ Chí Minh, Vietnam"
Thành phố Hồ Chí Minh,Quận 1,Phường Nguyễn Thái Bình,10.769385,106.700614,"10.764825,106.696358 – 10.771149,106.708403","Nguyen Thai Binh, District 1, Ho Chi Minh City, Vietnam"
Thành phố Hồ Chí Minh,Quận 1,Phường Đa Kao,10.787884,106.698403,"10.782905,106.691897 – 10.793682,106.706211","Da Kao, District 1, Ho Chi Minh City, Vietnam"
Thành phố Hồ Chí Minh,Quận 10,Phường 14,10.770934,106.660079,"10.763859,106.655996 – 10.782321,106.667748","Phường 14, District 10, Ho Chi Minh City, Vietnam"
Thành phố Hồ Chí Minh,Quận 11,Phường 8,10.763144,106.650451,"10.758093,106.64581 – 10.765016,106.657027","Phường 8, District 11, Ho Chi Minh City, Vietnam"
Thành phố Hồ Chí Minh,Quận 3,Phường 4,10.773081,106.682925,"10.770046,106.679047 – 10.777669,106.686832","Phường 4, District 3, Ho Chi Minh City, Vietnam"
Thành phố Hồ Chí Minh,Quận 4,Phường 15,10.756593,106.707318,"10.752403,106.705075 – 10.761069,106.711137","Phường 15, District 4, Ho Chi Minh City, Vietnam"
Thành phố Hồ Chí Minh,Quận 4,Phường 2,10.756389,106.694972,"10.753332,106.692633 – 10.761808,106.699126","Phường 2, District 4, Ho Chi Minh City, Vietnam"
Thành phố Hồ Chí Minh,Quận 4,Phường 4,10.755612,106.703562,"10.752424,106.700383 – 10.759271,106.706148","Phường 4, District 4, Ho Chi Minh City, Vietnam"
Thành phố Hồ Chí Minh,Quận 7,Phường Phú Mỹ,10.714263,106.736978,"10.697717,106.723059 – 10.725174,106.751633","Phú Mỹ, District 7, Ho Chi Minh City, Vietnam"
Thành phố Hồ Chí Minh,Quận 8,Phường 16,10.725157,106.622917,"10.704373,106.603516 – 10.735784,106.634735","Phường 16, District 8, Ho Chi Minh City, Vietnam"
Thành phố Hồ Chí Minh,Quận 8,Phường 5,10.738451,106.663361,"10.730151,106.655911 – 10.744175,106.678083","phường 5, Quận 8, Hồ Chí Minh, Vietnam"
Thành phố Hồ Chí Minh,Quận 8,Phường 7,10.704747,106.62211,"10.69227,106.597808 – 10.731976,106.642207","Phường 7, District 8, Ho Chi Minh City, Vietnam"
Thành phố Hồ Chí Minh,Quận Bình Tân,Phường Bình Hưng Hòa A,10.786868,106.604777,"10.773705,106.593138 – 10.796722,106.621543","Bình Hưng Hòa A, Bình Tân, Ho Chi Minh City, Vietnam"
Thành phố Hồ Chí Minh,Quận Bình Tân,Phường Bình Trị Đông A,10.770323,106.596713,"10.757267,106.576969 – 10.778463,106.610043","Bình Trị Đông A, Bình Tân, Hồ Chí Minh, Vietnam"
Thành phố Hồ Chí Minh,Quận Bình Tân,Phường Tân Tạo,10.759752,106.590819,"10.743522,106.56756 – 10.771263,106.605985","Tân Tạo, Bình Tân, Hồ Chí Minh, Vietnam"
Thành phố Hồ Chí Minh,Quận Bình Tân,Phường Tân Tạo A,10.749359,106.581338,"10.722316,106.55816 – 10.760424,106.602775","Tân Tạo A, Bình Tân, Ho Chi Minh City, Vietnam"
Thành phố Hồ Chí Minh,Quận Phú Nhuận,Phường 15,10.79424,106.680983,"10.791585,106.677474 – 10.799423,106.686168","Phường 15, Phú Nhuận, Ho Chi Minh City, Vietnam"
Thành phố Hồ Chí Minh,Quận Tân Bình,Phường 15,10.823333,106.63616,"10.803828,106.627896 – 10.837355,106.648567","Phường 15, Tân Bình, Ho Chi Minh City, Vietnam"
Thành phố Hồ Chí Minh,Quận Tân Phú,Phường Sơn Kỳ,10.806047,106.615868,"10.796804,106.607114 – 10.813012,106.632692","Sơn Kỳ, Tân Phú, Ho Chi Minh City, Vietnam"
Thành phố Hồ Chí Minh,Quận Tân Phú,Phường Tân Quý,10.794826,106.621762,"10.788117,106.613651 – 10.801354,106.629524","Tân Quý, Tân Phú, Hồ Chí Minh, Vietnam"
Thành phố Hồ Chí Minh,Quận Tân Phú,Phường Tân Thành,10.791455,106.633551,"10.786536,106.626977 – 10.795981,106.641101","Tan Thanh, Tân Phú, Ho Chi Minh City, Vietnam"
Thành phố Hồ Chí Minh,Quận Tân Phú,Phường Tân Thới Hòa,10.76294,106.632078,"10.75828,106.623269 – 10.770179,106.635693","Tân Thới Hòa, Tân Phú, Ho Chi Minh City, Vietnam"
Thành phố Hồ Chí Minh,Thành phố Thủ Đức,Phường An Phú,10.792333,106.751677,"10.780716,106.732298 – 10.814688,106.781251","An Phu, Thủ Đức City, Ho Chi Minh City, Vietnam"
Thành phố Hồ Chí Minh,Thành phố Thủ Đức,Phường Linh Tây,10.856052,106.753548,"10.848676,106.74978 – 10.86245,106.758664","Linh Tây, Thủ Đức City, Ho Chi Minh City, Vietnam"
Thành phố Hồ Chí Minh,Thành phố Thủ Đức,Phường Linh Đông,10.843909,106.744105,"10.833821,106.738563 – 10.860199,106.753511","Linh Dong, Thủ Đức City, Ho Chi Minh City, Vietnam"
Thành phố Hồ Chí Minh,Thành phố Thủ Đức,Phường Long Thạnh Mỹ,10.842195,106.823737,"10.825453,106.800973 – 10.870741,106.838981","Long Thạnh Mỹ, Thủ Đức, Hồ Chí Minh, Vietnam"
Thành phố Đà Nẵng,Huyện Hòa Vang,Xã Hòa Liên,16.087358,108.083578,"16.061609,108.038907 – 16.139249,108.126798","Hòa Liên, Hòa Vang, Đà Nẵng, Vietnam"
Tỉnh An Giang,Huyện An Phú,Xã Phú Hội,10.814282,105.073277,"10.797392,105.037451 – 10.879963,105.084915","Phú Hội, បូរីជលសារ, An Giang, Vietnam"
Tỉnh An Giang,Huyện An Phú,Xã Phước Hưng,10.868549,105.084969,"10.819849,105.059499 – 10.883377,105.10059","Phước Hưng, An Phú District, An Giang, Vietnam"
Tỉnh An Giang,Thành phố Châu Đốc,Xã Vĩnh Châu,10.657569,105.110953,"10.611587,105.056162 – 10.684436,105.138441","Vĩnh Châu, Tp. Châu Đốc, An Giang, Vietnam"
Tỉnh Bình Dương,Huyện Bàu Bàng,Thị trấn Lai Uyên,11.317778,106.632313,"11.209513,106.564207 – 11.344233,106.683769","Lai Uyên, Bến Cát, Binh Duong, Vietnam"
Tỉnh Bình Dương,Huyện Bắc Tân Uyên,Xã Tân Mỹ,11.074999,106.853238,"11.045851,106.814705 – 11.094754,106.912674","Tân Mỹ, Bac Tan Uyen, Binh Duong, Vietnam"
Tỉnh Bình Dương,Huyện Dầu Tiếng,Xã An Lập,11.204432,106.499489,"11.146031,106.43826 – 11.303239,106.544437","An Lập, Dầu Tiếng District, Binh Duong, Vietnam"
Tỉnh Bình Dương,Huyện Dầu Tiếng,Xã Minh Thạnh,11.422333,106.523054,"11.371497,106.481037 – 11.480529,106.573734","Minh Thạnh, Dầu Tiếng District, Binh Duong, Vietnam"
Tỉnh Bình Dương,Huyện Dầu Tiếng,Xã Minh Tân,11.381146,106.475926,"11.32252,106.433659 – 11.441666,106.519146","Minh Tân, Dầu Tiếng, Bình Dương, Vietnam"
Tỉnh Bình Dương,Huyện Dầu Tiếng,Xã Thanh Tuyền,11.185186,106.452366,"11.135968,106.427066 – 11.230222,106.521268","Thanh Tuyền, Dầu Tiếng District, Binh Duong, Vietnam"
Tỉnh Bình Dương,Huyện Dầu Tiếng,Xã Định Hiệp,11.296086,106.428809,"11.258335,106.369408 – 11.341131,106.473743","Định Hiệp, Dầu Tiếng District, Binh Duong, Vietnam"
Tỉnh Bình Dương,Huyện Phú Giáo,Xã Tam Lập,11.290879,106.900447,"11.20905,106.799469 – 11.355509,106.951904","Tam Lập, Phú Giáo, Bình Dương, Vietnam"
Tỉnh Bình Dương,Thành phố Bến Cát,Phường Mỹ Phước,11.148853,106.611447,"11.122149,106.573863 – 11.171076,106.635575","Mỹ Phước, Thành phố Bến Cát, Bình Dương, Vietnam"
Tỉnh Bình Dương,Thành phố Dĩ An,Phường Tân Đông Hiệp,10.917292,106.76859,"10.904711,106.740715 – 10.937231,106.801937","Tân Đông Hiệp, Dĩ An, Binh Duong, Vietnam"
Tỉnh Bình Dương,Thành phố Thuận An,Phường Bình Chuẩn,10.978978,106.717567,"10.967062,106.695871 – 10.997479,106.750545","Binh Chuan, Thủ Dầu Một, Binh Duong, Vietnam"
Tỉnh Bình Dương,Thành phố Thuận An,Phường Vĩnh Phú,10.877594,106.699775,"10.865831,106.688748 – 10.894566,106.723553","Vĩnh Phú, Thuận An, Binh Duong, Vietnam"
Tỉnh Bình Dương,Thành phố Thủ Dầu Một,Phường Chánh Mỹ,10.991956,106.632078,"10.977523,106.616046 – 11.005142,106.650983","Chánh Mỹ, Thủ Dầu Một, Binh Duong, Vietnam"
Tỉnh Bình Dương,Thành phố Thủ Dầu Một,Phường Hiệp An,11.035643,106.632078,"11.013887,106.611092 – 11.053924,106.648139","Hiệp An, Thủ Dầu Một, Binh Duong, Vietnam"
Tỉnh Bình Dương,Thành phố Thủ Dầu Một,Phường Hiệp Thành,10.995089,106.657617,"10.981523,106.645693 – 11.011718,106.673341","Hiệp Thành, Tp. Thủ Dầu Một, Bình Dương, Vietnam"
Tỉnh Bình Dương,Thành phố Tân Uyên,Phường Thái Hòa,10.97618,106.757366,"10.959219,106.733377 – 11.015222,106.78296","Thái Hòa, Tân Uyên District, Binh Duong, Vietnam"
Tỉnh Bình Thuận,Huyện Bắc Bình,Xã Hòa Thắng,11.101703,108.403867,"11.023513,108.306699 – 11.136298,108.500719","Hòa Thắng, Phan Thiet, Bình Thuận, Vietnam"
Tỉnh Bình Thuận,Huyện Tuy Phong,Xã Phong Phú,11.260158,108.641315,"11.220205,108.560844 – 11.390892,108.681607","Phong Phú, Tuy Phong, Bình Thuận, Vietnam"
Tỉnh Bình Định,Huyện An Lão,Xã An Nghĩa,14.501636,108.825442,"14.468191,108.767584 – 14.520745,108.890478","Ân Nghĩa, An Lão, Bình Định, Vietnam"
Tỉnh Bình Định,Huyện Vân Canh,Xã Canh Hiệp,13.660137,108.985882,"13.56792,108.957095 – 13.791216,109.118013","Canh Hiep, Vân Canh District, Binh Dinh, Vietnam"
Tỉnh Bình Định,Huyện Vân Canh,Xã Canh Liên,13.701825,108.878915,"13.503032,108.799553 – 13.837449,108.978296","Canh Liên, Vân Canh District, Binh Dinh, Vietnam"
Tỉnh Bến Tre,Huyện Mỏ Cày Bắc,Xã Hòa Lộc,10.163164,106.316948,"10.140326,106.300535 – 10.18882,106.342249","Hòa Lộc, Bến Tre, Ben Tre, Vietnam"
Tỉnh Cà Mau,Huyện Cái Nước,Xã Hòa Mỹ,8.99993,104.997303,"8.981478,104.959302 – 9.041411,105.045261","Hòa Mỹ, Cái Nước, Cà Mau, Vietnam"
Tỉnh Cà Mau,Huyện Cái Nước,Xã Tân Hưng Đông,8.962132,105.003146,"8.922043,104.958572 – 8.990659,105.062213","Tân Hưng Đông, Cái Nước, Cà Mau, Vietnam"
Tỉnh Cà Mau,Huyện Cái Nước,Xã Đông Hưng,8.974593,105.090815,"8.94023,105.038438 – 9.008012,105.114613","Đông Hưng, Cái Nước, Cà Mau, Vietnam"
Tỉnh Cà Mau,Huyện Cái Nước,Xã Đông Thới,8.911229,105.067432,"8.878372,105.048738 – 8.95439,105.102682","Đông Thới, Cái Nước, Cà Mau, Vietnam"
Tỉnh Cà Mau,Huyện Ngọc Hiển,Xã Tân Ân,8.653504,105.090815,"8.598292,105.007668 – 8.701729,105.142808","Tân Ân, Ngọc Hiển, Cà Mau, Vietnam"
Tỉnh Cà Mau,Huyện Ngọc Hiển,Xã Viên An,8.663728,104.833788,"8.567442,104.772921 – 8.737998,104.915485","Viên An, Ngọc Hiển District, Ca Mau, Vietnam"
Tỉnh Cà Mau,Huyện Năm Căn,Thị Trấn Năm Căn,8.759819,104.994127,"8.744106,104.957886 – 8.801534,105.016337","Năm Căn, Năm Căn District, Ca Mau, Vietnam"
Tỉnh Cà Mau,Huyện Năm Căn,Xã Hàm Rồng,8.826489,105.044052,"8.795766,104.990759 – 8.872436,105.072126","Hàm Rồng, Năm Căn, Cà Mau, Vietnam"
Tỉnh Cà Mau,Huyện Trần Văn Thời,Xã Lợi An,9.15202,105.084969,"9.057897,104.957628 – 9.208357,105.123239","Lợi An, Cà Mau, Ca Mau, Vietnam"
Tỉnh Cà Mau,Huyện Trần Văn Thời,Xã Phong Điền,9.005705,104.857137,"8.971389,104.799657 – 9.060355,104.926686","Phong Điền, Trần Văn Thời District, Ca Mau, Vietnam"
Tỉnh Cà Mau,Huyện Trần Văn Thời,Xã Trần Hợi,9.196326,104.927204,"9.111207,104.909434 – 9.24017,104.994793","Trần Hợi, Trần Văn Thời, Cà Mau, Vietnam"
Tỉnh Cà Mau,Huyện U Minh,Xã Khánh Lâm,9.326591,104.903845,"9.274563,104.847207 – 9.39991,104.9469","Khánh Lâm, U Minh District, Ca Mau, Vietnam"
Tỉnh Cà Mau,Huyện U Minh,Xã Khánh Thuận,9.464361,104.96225,"9.405371,104.881239 – 9.561311,105.038223","Khánh Thuận, U Minh District, Ca Mau, Vietnam"
Tỉnh Cà Mau,Huyện U Minh,Xã Nguyễn Phích,9.382988,105.002131,"9.272318,104.931107 – 9.440087,105.066547","Nguyễn Phích, U Minh District, Ca Mau, Vietnam"
Tỉnh Cà Mau,Huyện Đầm Dơi,Xã Tạ An Khương,9.061137,105.20193,"9.013692,105.170531 – 9.09002,105.24147","Tạ An Khương, Tp. Cà Mau, Cà Mau, Vietnam"
Tỉnh Cà Mau,Thành phố Cà Mau,Phường 6,9.173666,105.188693,"9.15981,105.15359 – 9.187203,105.223929","Phường 6, Cà Mau, Ca Mau, Vietnam"
Tỉnh Cà Mau,Thành phố Cà Mau,Phường 7,9.159617,105.158498,"9.146252,105.145748 – 9.178028,105.171218","Phường 7, Cà Mau, Ca Mau, Vietnam"
Tỉnh Cà Mau,Thành phố Cà Mau,Xã Tắc Vân,9.166273,105.264111,"9.157448,105.249667 – 9.181668,105.280319","Tắc Vân, Cà Mau, Ca Mau, Vietnam"
Tỉnh Cà Mau,Thành phố Cà Mau,Xã Định Bình,9.16362,105.230231,"9.112892,105.214455 – 9.174922,105.267381","Định Bình, Cà Mau, Ca Mau, Vietnam"
Tỉnh Hà Giang,Huyện Bắc Mê,Xã Yên Định,22.807514,105.114201,"22.750301,105.049553 – 22.842325,105.170574","Yên Định, Hà Giang, Vietnam"
Tỉnh Hà Giang,Huyện Vị Xuyên,Xã Việt Lâm,22.656306,104.933045,"22.587703,104.899864 – 22.705493,104.959002","Việt Lâm, Vị Xuyên, Hà Giang, Vietnam"
Tỉnh Hà Giang,Thành phố Hà Giang,Phường Quang Trung,22.836987,104.977697,"22.830499,104.955525 – 22.868228,105.015221","Quang Trung, Hà Giang, Vietnam"
Tỉnh Hà Nam,Thành phố Phủ Lý,Phường Quang Trung,20.561942,105.921522,"20.540101,105.910199 – 20.571403,105.931292","Quang Trung, Phủ Lý, Hà Nam, Vietnam"
Tỉnh Hà Nam,Thị xã Duy Tiên,Phường Hoàng Đông,20.620885,105.925927,"20.602659,105.904942 – 20.635033,105.943136","Hoàng Đông, Phủ Lý, Hà Nam, Vietnam"
Tỉnh Hà Nam,Thị xã Duy Tiên,Phường Hòa Mạc,20.637754,105.977332,"20.626376,105.964571 – 20.648069,105.994152","Hòa Mạc, Duy Tiên, Hà Nam, Vietnam"
Tỉnh Hà Nam,Thị xã Duy Tiên,Phường Tiên Nội,20.619226,105.94355,"20.59836,105.92974 – 20.642588,105.962788","Tiên Nội, Duy Tiên, Hà Nam, Vietnam"
Tỉnh Hà Nam,Thị xã Duy Tiên,Xã Tiên Ngoại,20.606539,105.9553,"20.585064,105.940132 – 20.626519,105.969143","Tiên Ngoại, Tp. Phủ Lý, Hà Nam, Vietnam"
Tỉnh Hà Tĩnh,Thành phố Hà Tĩnh,Phường Đại Nài,18.321205,105.911045,"18.308859,105.902474 – 18.332452,105.936184","Đại Nài, Hà Tĩnh, Ha Tinh, Vietnam"
Tỉnh Hà Tĩnh,Thị xã Kỳ Anh,Xã Kỳ Lợi,18.089638,106.408198,"18.0566,106.356969 – 18.125909,106.435504","Kỳ Lợi, Kỳ Anh, Hà Tĩnh, Vietnam"
Tỉnh Hòa Bình,Huyện Lương Sơn,Xã Cao Sơn,20.82514,105.506409,"20.787573,105.46463 – 20.871323,105.554237","Cao Răm, Lương Sơn, Hòa Bình, Vietnam"
Tỉnh Hòa Bình,Huyện Mai Châu,Xã Đồng Tân,20.716591,105.038208,"20.698277,104.998127 – 20.737761,105.088047","Đồng Bảng, Mai Châu District, Hoa Binh, Vietnam"
Tỉnh Hòa Bình,Huyện Đà Bắc,Xã Vầy Nưa,20.800145,105.20778,"20.76125,105.161133 – 20.836032,105.282669","Vầy Nưa, Đà Bắc, Hòa Bình, Vietnam"
Tỉnh Hưng Yên,Huyện Kim Động,Xã Ngọc Thanh,20.720897,106.03169,"20.708288,106.014082 – 20.734535,106.051134","Ngọc Thanh, Kim Động, Hung Yen, Vietnam"
Tỉnh Hưng Yên,Huyện Văn Lâm,Xã Lạc Đạo,20.985197,106.022874,"20.974744,106.003669 – 21.00191,106.037893","Lạc Đạo, Văn Lâm, Hưng Yên, Vietnam"
Tỉnh Hưng Yên,Huyện Văn Lâm,Xã Đình Dù,20.966901,106.002305,"20.959802,105.987327 – 20.97849,106.029492","Đình Dù, Văn Lâm, Hung Yen, Vietnam"
Tỉnh Hải Dương,Huyện Bình Giang,Xã Thái Dương,20.843914,106.137511,"20.819105,106.124454 – 20.860135,106.158314","Thái Dương, An Khải, Hải Dương, Vietnam"
Tỉnh Hải Dương,Huyện Bình Giang,Xã Thái Hòa,20.842216,106.155153,"20.827549,106.141362 – 20.858291,106.179643","Thái Hòa, Bình Giang, Hải Dương, Vietnam"
Tỉnh Hải Dương,Huyện Bình Giang,Xã Thái Minh,20.861392,106.196325,"20.849114,106.182258 – 20.87726,106.220437","Thái Học, Bình Giang District, Hai Duong, Vietnam"
Tỉnh Hải Dương,Huyện Bình Giang,Xã Thúc Kháng,20.868543,106.152213,"20.855212,106.136597 – 20.902232,106.168171","Thúc Kháng, Bình Giang District, Hai Duong, Vietnam"
Tỉnh Hải Dương,Huyện Bình Giang,Xã Tân Hồng,20.881026,106.172797,"20.856108,106.158641 – 20.89828,106.179519","Tân Hồng, Bình Giang, Hải Dương, Vietnam"
Tỉnh Hải Dương,Huyện Bình Giang,Xã Vĩnh Hồng,20.900998,106.175738,"20.879529,106.152775 – 20.91735,106.196216","Vĩnh Hồng, Bình Giang District, Hai Duong, Vietnam"
Tỉnh Hải Dương,Huyện Cẩm Giàng,Thị trấn Lai Cách,20.936694,106.255156,"20.921299,106.233437 – 20.948375,106.283205","tt. Lai Cách, Hải Dương, Vietnam"
Tỉnh Hải Dương,Huyện Cẩm Giàng,Xã Phúc Điền,20.947949,106.22868,"20.900157,106.127311 – 21.001243,106.293496","Cẩm Giàng District, Hai Duong, Vietnam"
Tỉnh Hải Dương,Huyện Gia Lộc,Thị trấn Gia Lộc,20.868475,106.302234,"20.85025,106.283734 – 20.885738,106.308796","Gia Lộc, Hải Dương, Hai Duong, Vietnam"
Tỉnh Hải Dương,Huyện Gia Lộc,Xã Gia Phúc,20.832155,106.301607,"20.830801,106.300325 – 20.833499,106.303023","R8J2+VJ9, Hồng Hưng, Gia Lộc District, Hai Duong, Vietnam"
Tỉnh Hải Dương,Huyện Gia Lộc,Xã Lê Lợi,20.85716,106.269867,"20.830758,106.258259 – 20.865626,106.284919","Lê Lợi, Gia Lộc District, Hai Duong, Vietnam"
Tỉnh Hải Dương,Huyện Gia Lộc,Xã Quang Đức,20.86123,106.287521,"20.775727,106.238391 – 20.918832,106.351516","Gia Lộc District, Hai Duong, Vietnam"
Tỉnh Hải Dương,Huyện Gia Lộc,Xã Thống Kênh,20.81006,106.308119,"20.795404,106.296404 – 20.82732,106.3189","Thống Kênh, Gia Lộc District, Hai Duong, Vietnam"
Tỉnh Hải Dương,Huyện Gia Lộc,Xã Thống Nhất,20.891871,106.269867,"20.882127,106.250248 – 20.909053,106.294217","Thống Nhất, Gia Lộc District, Hai Duong, Vietnam"
Tỉnh Hải Dương,Huyện Gia Lộc,Xã Yết Kiêu,20.871729,106.260047,"20.870379,106.258896 – 20.873077,106.261593","V7C6+M2V, Yết Kiêu, Gia Lộc, Hải Dương, Vietnam"
Tỉnh Hải Dương,Huyện Gia Lộc,Xã Đoàn Thượng,20.824486,106.278694,"20.801629,106.269128 – 20.844183,106.294742","Đoàn Thượng, Gia Lộc District, Hai Duong, Vietnam"
Tỉnh Hải Dương,Huyện Kim Thành,Xã Hòa Bình,20.932973,106.499489,"20.850783,106.387612 – 21.003395,106.552344","Kim Thành District, Hai Duong, Vietnam"
Tỉnh Hải Dương,Huyện Kim Thành,Xã Tuấn Việt,20.932973,106.499489,"20.850783,106.387612 – 21.003395,106.552344","Kim Thành District, Hai Duong, Vietnam"
Tỉnh Hải Dương,Huyện Kim Thành,Xã Vũ Dũng,20.932973,106.499489,"20.850783,106.387612 – 21.003395,106.552344","Kim Thành District, Hai Duong, Vietnam"
Tỉnh Hải Dương,Huyện Nam Sách,Xã Cộng Hòa,21.007611,106.38759,"20.986717,106.374157 – 21.024611,106.410583","Cộng Hòa, Nam Sách District, Hai Duong, Vietnam"
Tỉnh Hải Dương,Huyện Thanh Hà,Xã Cẩm Việt,20.929538,106.417031,"20.799714,106.344831 – 20.975364,106.516114","Thanh Hà District, Hai Duong, Vietnam"
Tỉnh Hải Dương,Huyện Thanh Hà,Xã Hồng Lạc,20.957007,106.40231,"20.934606,106.382208 – 20.975538,106.419957","Hồng Lạc, Thanh Hà, Hải Dương, Vietnam"
Tỉnh Hải Dương,Huyện Thanh Hà,Xã Thanh An,20.940805,106.449421,"20.9277,106.432374 – 20.953976,106.460292","Thanh An, Thanh Hà District, Hai Duong, Vietnam"
Tỉnh Hải Dương,Huyện Thanh Hà,Xã Thanh Hải,20.893975,106.396422,"20.876779,106.378491 – 20.910571,106.417754","Thanh Hải, Thanh Hà District, Hai Duong, Vietnam"
Tỉnh Hải Dương,Huyện Thanh Miện,Thị trấn Thanh Miện,20.787978,106.237505,"20.775576,106.217022 – 20.797282,106.260324","Thanh Miện, Thanh Miện District, Hai Duong, Vietnam"
Tỉnh Hải Dương,Huyện Thanh Miện,Xã Thanh Tùng,20.83654,106.213972,"20.821191,106.198912 – 20.848144,106.242299","Thanh Tùng, Thanh Miện, Hải Dương, Vietnam"
Tỉnh Hải Dương,Huyện Thanh Miện,Xã Đoàn Tùng,20.824399,106.219855,"20.810721,106.198096 – 20.833383,106.234231","Xã Đoàn Tùng, Thanh Miện, Hải Dương, Vietnam"
Tỉnh Hải Dương,Huyện Tứ Kỳ,Xã Hưng Đạo,20.859556,106.36404,"20.847995,106.347727 – 20.873919,106.394351","Hưng Đạo, Tứ Kỳ District, Hai Duong, Vietnam"
Tỉnh Hải Dương,Huyện Tứ Kỳ,Xã Tiên Động,20.762163,106.443532,"20.744374,106.426018 – 20.777627,106.467746","Tiên Động, Tứ Kỳ District, Hai Duong, Vietnam"
Tỉnh Hải Dương,Thành phố Chí Linh,Phường Cộng Hòa,21.134852,106.38759,"21.112207,106.358728 – 21.162482,106.424647","Cộng Hòa, Chí Linh, Hải Dương, Vietnam"
Tỉnh Hải Dương,Thành phố Chí Linh,Phường Văn Đức,21.09549,106.434698,"21.062519,106.40539 – 21.121911,106.454979","Văn Đức, Chí Linh District, Hai Duong, Vietnam"
Tỉnh Hải Dương,Thành phố Hải Dương,Phường Trần Phú,20.934653,106.327984,"20.929556,106.324847 – 20.939236,106.342249","Trần Phú, Hải Dương, Hai Duong, Vietnam"
Tỉnh Hải Dương,Thành phố Hải Dương,Phường Tứ Minh,20.924263,106.286765,"20.914464,106.25968 – 20.939477,106.301608","Tứ Minh, Hải Dương, Hai Duong, Vietnam"
Tỉnh Hải Dương,Thị xã Kinh Môn,Xã Thượng Quận,20.994546,106.490653,"20.974084,106.471061 – 21.012354,106.507932","Thượng Quận, Kinh Môn, Hai Duong, Vietnam"
Tỉnh Hậu Giang,Huyện Châu Thành,Xã Phú Hữu,9.910655,105.840772,"9.866167,105.815689 – 9.946828,105.874407","Phú Hữu, Châu Thành, Hậu Giang, Vietnam"
Tỉnh Hậu Giang,Huyện Châu Thành,Xã Phú Tân,9.67308,105.952362,"9.641792,105.909426 – 9.709649,105.987532","Phú Tân, Tp. Sóc Trăng, Sóc Trăng, Vietnam"
Tỉnh Hậu Giang,Huyện Long Mỹ,Xã Thuận Hưng,9.660954,105.51813,"9.641039,105.489047 – 9.686926,105.559854","Thuận Hưng, Long Mỹ District, Hau Giang, Vietnam"
Tỉnh Hậu Giang,Huyện Phụng Hiệp,Xã Tân Long,9.855364,105.752722,"9.82215,105.717316 – 9.885658,105.790615","Tân Long, Ngã Bảy, Hậu Giang, Vietnam"
Tỉnh Hậu Giang,Thị xã Long Mỹ,Xã Long Bình,9.669597,105.565024,"9.6511,105.54677 – 9.695774,105.592861","Long Mỹ, Long Mỹ District, Hau Giang, Vietnam"
Tỉnh Hậu Giang,Thị xã Long Mỹ,Xã Long Phú,9.669597,105.565024,"9.6511,105.54677 – 9.695774,105.592861","Long Mỹ, Long Mỹ District, Hau Giang, Vietnam"
Tỉnh Khánh Hòa,Huyện Cam Lâm,Xã Cam An Bắc,11.981366,109.080987,"11.926142,109.049263 – 12.027233,109.119473","Cam An Bắc, Tp. Cam Ranh, Khánh Hòa, Vietnam"
Tỉnh Khánh Hòa,Huyện Cam Lâm,Xã Cam An Nam,11.972986,109.122602,"11.946044,109.097586 – 12.002803,109.141874","Cam An Nam, Cam Ranh, Khánh Hòa, Vietnam"
Tỉnh Khánh Hòa,Huyện Cam Lâm,Xã Cam Hiệp Bắc,12.067002,109.104766,"12.040496,109.073296 – 12.104452,109.128399","Cam Hiệp Bắc, Cam Lâm, Khánh Hòa, Vietnam"
Tỉnh Khánh Hòa,Huyện Cam Lâm,Xã Cam Hiệp Nam,12.028376,109.110711,"12.000452,109.075613 – 12.052164,109.136553","Cam Hiệp Nam, Tp. Cam Ranh, Khánh Hòa, Vietnam"
Tỉnh Khánh Hòa,Huyện Cam Lâm,Xã Cam Hòa,12.124953,109.134493,"12.078645,109.094281 – 12.170848,109.16713","Cam Hòa, Nha Trang, Khánh Hòa, Vietnam"
Tỉnh Khánh Hòa,Huyện Cam Lâm,Xã Cam Tân,12.127492,109.098821,"12.094885,109.039822 – 12.165457,109.136038","Cam Tân, Nha Trang, Khánh Hòa, Vietnam"
Tỉnh Khánh Hòa,Huyện Cam Lâm,Xã Suối Tân,12.120786,109.039376,"12.057578,108.944228 – 12.182174,109.144814","Suối Tân, Cam Lâm, Khánh Hòa, Vietnam"
Tỉnh Long An,Huyện Thủ Thừa,Thị trấn Thủ Thừa,10.614917,106.399366,"10.593902,106.385014 – 10.631401,106.416471","Tân Thành, Tan An, Long An, Vietnam"
Tỉnh Long An,Huyện Thủ Thừa,Xã Bình Thạnh,10.58227,106.399366,"10.563464,106.379414 – 10.596749,106.442628","Bình Thanh, Tp. Tân An, Long An, Vietnam"
Tỉnh Long An,Huyện Thủ Thừa,Xã Nhị Thành,10.591897,106.42292,"10.572946,106.409701 – 10.631232,106.446501","Nhị Thành, Tp. Tân An, Long An, Vietnam"
Tỉnh Long An,Huyện Thủ Thừa,Xã Tân Thành,10.614917,106.399366,"10.593902,106.385014 – 10.631401,106.416471","Tân Thành, Tan An, Long An, Vietnam"
Tỉnh Long An,Huyện Tân Thạnh,Xã Bắc Hòa,10.695417,105.905369,"10.654146,105.868958 – 10.732752,105.937921","Bắc Hòa, Tân Thạnh District, Long An, Vietnam"
Tỉnh Long An,Huyện Vĩnh Hưng,Xã Khánh Hưng,10.963169,105.699912,"10.915046,105.630369 – 11.004978,105.739524","Khánh Hưng, Vĩnh Hưng, Long An, Vietnam"
Tỉnh Long An,Huyện Vĩnh Hưng,Xã Thái Bình Trung,10.906789,105.834901,"10.857793,105.800046 – 10.945484,105.863364","Thái Bình Trung, Vĩnh Hưng District, Long An, Vietnam"
Tỉnh Long An,Huyện Vĩnh Hưng,Xã Thái Trị,10.958227,105.793807,"10.893744,105.75963 – 10.997226,105.830269","Thái Trị, Vĩnh Hưng, Long An, Vietnam"
Tỉnh Long An,Huyện Vĩnh Hưng,Xã Vĩnh Bình,10.874576,105.823159,"10.839284,105.791575 – 10.908486,105.841837","Vĩnh Bình, Vĩnh Hưng District, Long An, Vietnam"
Tỉnh Long An,Huyện Vĩnh Hưng,Xã Vĩnh Thuận,10.844825,105.76446,"10.803084,105.739881 – 10.865513,105.794364","Vĩnh Thuận, Vĩnh Hưng District, Long An, Vietnam"
Tỉnh Long An,Huyện Vĩnh Hưng,Xã Vĩnh Trị,10.915659,105.770329,"10.843751,105.704032 – 10.991603,105.819417","Vĩnh Trị, Vĩnh Hưng District, Long An, Vietnam"
Tỉnh Long An,Huyện Đức Hòa,Xã Đức Hòa Thượng,10.863038,106.446477,"10.837437,106.424131 – 10.898801,106.482055","Đức Hòa Thượng, Đức Hòa, Long An, Vietnam"
Tỉnh Long An,Thành phố Tân An,Phường 4,10.525171,106.394911,"10.506748,106.385722 – 10.543667,106.411246","Phường 4, Tp. Tân An, Long An, Vietnam"
Tỉnh Lạng Sơn,Huyện Bình Gia,Xã Hồng Phong,22.099154,106.405254,"22.058885,106.337443 – 22.157822,106.491366","Hồng Phong, Bình Gia District, Lạng Sơn, Vietnam"
Tỉnh Lạng Sơn,Huyện Đình Lập,Xã Bính Xá,21.642919,107.124821,"21.555364,107.080994 – 21.737018,107.239652","Bính Xá, Đình Lập, Lạng Sơn, Vietnam"
Tỉnh Lạng Sơn,Huyện Đình Lập,Xã Kiên Mộc,21.613629,107.197198,"21.609956,107.191801 – 21.618654,107.20253","Kiên Mộc, Đình Lập, Lạng Sơn, Vietnam"
Tỉnh Ninh Bình,Huyện Gia Viễn,Xã Gia Tân,20.327234,105.908306,"20.305028,105.889492 – 20.351306,105.92906","xã Gia Tân, Hoa Lư, Ninh Bình, Vietnam"
Tỉnh Ninh Thuận,Thành phố Phan Rang-Tháp Chàm,Phường Đông Hải,11.542645,109.028974,"11.529795,109.012302 – 11.554739,109.034672","Đông Hải, Tp. Phan Rang - Tháp Chàm, Ninh Thuận, Vietnam"
Tỉnh Phú Yên,Huyện Phú Hòa,Xã Hòa An,13.055008,109.274232,"13.032396,109.257263 – 13.076428,109.292077","Hòa An, Phú Hòa District, Phú Yên, Vietnam"
Tỉnh Phú Yên,Huyện Phú Hòa,Xã Hòa Trị,13.081385,109.253417,"13.065099,109.228253 – 13.109619,109.276539","Hòa Trị, Phú Hòa District, Phú Yên, Vietnam"
Tỉnh Phú Yên,Huyện Sông Hinh,Xã Ea Bar,12.945221,108.795738,"12.86787,108.744564 – 13.035331,108.861466","Ea Bar, Ban Hoang, Phú Yên, Vietnam"
Tỉnh Phú Yên,Huyện Sông Hinh,Xã Ea Bia,12.963464,108.92051,"12.931957,108.885069 – 12.999707,108.953476","Ea Bia, Sông Hinh, Phú Yên, Vietnam"
Tỉnh Phú Yên,Huyện Tây Hòa,Xã Hòa Bình 1,13.024507,109.277206,"12.999355,109.253767 – 13.048213,109.293302","Hòa Bình 1, Tây Hòa District, Phú Yên, Vietnam"
Tỉnh Phú Yên,Thành phố Tuy Hòa,Phường 9,13.107823,109.294341,"13.089521,109.249458 – 13.119657,109.313332","Phường 9, Tuy Hòa, Phú Yên, Vietnam"
Tỉnh Phú Yên,Thị xã Đông Hòa,Phường Hòa Hiệp Bắc,13.019016,109.348579,"13.001426,109.329294 – 13.053606,109.370071","Hòa Hiệp Bắc, Đông Hòa District, Phú Yên, Vietnam"
Tỉnh Quảng Ngãi,Huyện Trà Bồng,Xã Trà Bùi,15.128738,108.486956,"15.103786,108.454381 – 15.170853,108.575766","Trà Bùi, Trà Bồng District, Quang Ngai, Vietnam"
Tỉnh Quảng Ninh,Huyện Bình Liêu,Xã Vô Ngại,21.51529,107.349404,"21.438709,107.270765 – 21.60068,107.420754","Vô Ngại, Bình Liêu, Quảng Ninh, Vietnam"
Tỉnh Quảng Ninh,Huyện Hải Hà,Xã Quảng Long,21.459319,107.702188,"21.456823,107.699318 – 21.461296,107.706356","Quảng Long, Hải Hà, Quảng Ninh, Vietnam"
Tỉnh Quảng Ninh,Huyện Tiên Yên,Xã Hải Lạng,21.282247,107.373056,"21.220981,107.317329 – 21.344945,107.44556","Hải Lạng, Tiên Yên, Quảng Ninh, Vietnam"
Tỉnh Quảng Ninh,Huyện Tiên Yên,Xã Yên Than,21.346265,107.367143,"21.312289,107.291937 – 21.397715,107.435139","Yên Than, Tiên Yên District, Quảng Ninh, Vietnam"
Tỉnh Quảng Ninh,Huyện Tiên Yên,Xã Đông Ngũ,21.341334,107.467686,"21.287695,107.421098 – 21.401374,107.49547","Đông Ngũ, Tiên Yên, Quảng Ninh, Vietnam"
Tỉnh Quảng Ninh,Huyện Tiên Yên,Xã Đại Dực,21.445166,107.416999,"21.388861,107.380658 – 21.468755,107.475594","Đại Dực, Tiên Yên District, Quảng Ninh, Vietnam"
Tỉnh Quảng Ninh,Thành phố Cẩm Phả,Xã Hải Hòa,21.144867,107.352114,"21.080376,107.312221 – 21.22198,107.417536","Hải Hòa, Tp. Cẩm Phả, Quảng Ninh, Vietnam"
Tỉnh Quảng Ninh,Thành phố Hạ Long,Phường Hà Khẩu,20.973609,106.986038,"20.945249,106.953535 – 20.999827,107.00984","Hà Khẩu, Hạ Long, Quảng Ninh, Vietnam"
Tỉnh Quảng Ninh,Thành phố Hạ Long,Xã Đồng Lâm,21.111648,107.018512,"21.06616,106.912422 – 21.162161,107.120519","Đồng Lâm, Hoành Bồ, Quảng Ninh, Vietnam"
Tỉnh Quảng Ninh,Thành phố Uông Bí,Phường Trưng Vương,21.032113,106.790069,"20.974424,106.76269 – 21.041649,106.803932","Trưng Vương, Uông Bí, Quảng Ninh, Vietnam"
Tỉnh Quảng Ninh,Thành phố Đông Triều,Phường Đức Chính,21.088601,106.51885,"21.07565,106.503693 – 21.118772,106.537342","Đức Chính, Chí Linh, Quảng Ninh, Vietnam"
Tỉnh Quảng Ninh,Thị xã Quảng Yên,Xã Liên Hòa,20.878324,106.844388,"20.851914,106.821699 – 20.902156,106.899719","Liên Hòa, Tx. Quảng Yên, Quảng Ninh, Vietnam"
Tỉnh Sóc Trăng,Huyện Châu Thành,Xã Phú Tân,9.67308,105.952362,"9.641792,105.909426 – 9.709649,105.987532","Phú Tân, Tp. Sóc Trăng, Sóc Trăng, Vietnam"
Tỉnh Sóc Trăng,Huyện Long Phú,Xã Long Phú,9.573429,106.12281,"9.541589,106.063299 – 9.612725,106.180394","Long Phú, Sóc Trăng, Vietnam"
Tỉnh Sóc Trăng,Huyện Long Phú,Xã Phú Hữu,9.689616,106.05814,"9.655542,106.029417 – 9.709205,106.069887","Phú Hữu, Tp. Sóc Trăng, Sóc Trăng, Vietnam"
Tỉnh Sóc Trăng,Huyện Long Phú,Xã Tân Thạnh,9.621597,106.12869,"9.589123,106.09697 – 9.656259,106.159364","Tân Thạnh, Long Phú District, Soc Trang, Vietnam"
Tỉnh Sóc Trăng,Huyện Mỹ Tú,Xã Thuận Hưng,9.585589,105.864259,"9.553584,105.811834 – 9.628474,105.90281","Thuận Hưng, My Tu, Soc Trang, Vietnam"
Tỉnh Sóc Trăng,Huyện Mỹ Xuyên,Xã Thạnh Quới,9.432446,105.799677,"9.400256,105.753484 – 9.469921,105.846278","Thạnh Qưới, Mỹ Xuyên, Sóc Trăng, Vietnam"
Tỉnh Sóc Trăng,Thị xã Ngã Năm,Xã Long Bình,9.536882,105.635388,"9.49444,105.600243 – 9.568505,105.662041","Long Bình, tx. Ngã Năm, Sóc Trăng, Vietnam"
Tỉnh Sóc Trăng,Thị xã Ngã Năm,Xã Tân Long,9.525031,105.658849,"9.48953,105.616636 – 9.582004,105.705257","Tân Long, tx. Ngã Năm, Sóc Trăng, Vietnam"
Tỉnh Thanh Hóa,Huyện Hà Trung,Thị trấn Hà Trung,19.992977,105.845176,"19.978875,105.839109 – 20.020633,105.854237","Hà Trung, Hà Trung District, Thanh Hoa, Vietnam"
Tỉnh Thanh Hóa,Huyện Hà Trung,Xã Hà Bình,20.02639,105.843708,"20.009484,105.82278 – 20.040894,105.865867","Hà Bình, Tx. Bỉm Sơn, Thanh Hóa, Vietnam"
Tỉnh Thanh Hóa,Huyện Như Thanh,Xã Thanh Tân,19.444957,105.582612,"19.370426,105.513446 – 19.519367,105.623626","Thanh Tân, Như Thanh, Thanh Hóa, Vietnam"
Tỉnh Thanh Hóa,Huyện Như Thanh,Xã Yên Thọ,19.58706,105.61193,"19.561913,105.586102 – 19.63127,105.628814","Yên Thọ, Như Thanh, Thanh Hóa, Vietnam"
Tỉnh Thanh Hóa,Huyện Quan Sơn,Thị trấn Sơn Lư,20.271434,104.880489,"20.22961,104.83042 – 20.313485,104.938912","Son Lu, Quan Sơn District, Thanh Hoa, Vietnam"
Tỉnh Thanh Hóa,Huyện Thiệu Hóa,Thị trấn Thiệu Hóa,19.8865,105.678593,"19.876638,105.664358 – 19.905109,105.7056","Thiệu Hóa, Thanh Hóa, Thanh Hoa, Vietnam"
Tỉnh Thanh Hóa,Huyện Thiệu Hóa,Xã Thiệu Long,19.928132,105.682312,"19.91218,105.668392 – 19.942531,105.706265","Thiệu Long, Thanh Hóa, Vietnam"
Tỉnh Thanh Hóa,Huyện Thường Xuân,Xã Luận Khê,19.789769,105.348246,"19.741577,105.303891 – 19.843615,105.382967","Luận Khê, Thường Xuân District, Thanh Hoa, Vietnam"
Tỉnh Thanh Hóa,Thành phố Thanh Hóa,Phường An Hưng,19.79425,105.749969,"19.773509,105.734342 – 19.808407,105.764276","An Hoạch, Thanh Hóa, Thanh Hoa, Vietnam"
Tỉnh Thanh Hóa,Thành phố Thanh Hóa,Phường Đông Thọ,19.822408,105.766782,"19.811542,105.758262 – 19.835009,105.787144","Đông Thọ, Thanh Hóa, Thanh Hoa, Vietnam"
Tỉnh Thái Nguyên,Huyện Phú Bình,Xã Thượng Đình,21.494771,105.905369,"21.480924,105.884422 – 21.518758,105.93267","Thượng Đình, Phú Bình, Thai Nguyen, Vietnam"
Tỉnh Thái Nguyên,Thành phố Thái Nguyên,Phường Cam Giá,21.558765,105.873068,"21.547284,105.853076 – 21.575625,105.896203","Cam Giá, Thai Nguyen, Vietnam"
Tỉnh Thái Nguyên,Thành phố Thái Nguyên,Phường Gia Sàng,21.577222,105.849558,"21.564564,105.83293 – 21.584718,105.86606","Gia Sàng, Thái Nguyên, Thai Nguyen, Vietnam"
Tỉnh Tiền Giang,Thành phố Mỹ Tho,Phường 4,10.3575,106.359625,"10.34773,106.356551 – 10.36435,106.362333","Phường 4, Thành phố Mỹ Tho, Tiền Giang, Vietnam"
Tỉnh Tiền Giang,Thành phố Mỹ Tho,Phường 6,10.351872,106.347671,"10.343262,106.336091 – 10.361517,106.357151","Phường 6, Mỹ Tho, Tien Giang, Vietnam"
Tỉnh Tiền Giang,Thị xã Cai Lậy,Phường 3,10.354102,106.374039,"10.347878,106.367065 – 10.365128,106.382579","Phường 2, Mỹ Tho, Tien Giang, Vietnam"
Tỉnh Tiền Giang,Thị xã Cai Lậy,Phường 4,10.405064,106.118672,"10.403715,106.117323 – 10.406413,106.12002","Cai Lậy, Tien Giang, Vietnam"
Tỉnh Tuyên Quang,Huyện Yên Sơn,Xã Thái Bình,21.801658,105.275072,"21.795407,105.257564 – 21.805926,105.286016","Thái Bình, Tp. Tuyên Quang, Tuyên Quang, Vietnam"
Tỉnh Tuyên Quang,Thành phố Tuyên Quang,Xã Kim Phú,21.785667,105.166833,"21.753995,105.145309 – 21.809986,105.198032","Kim Phú, Yên Sơn District, Tuyên Quang, Vietnam"
Tỉnh Tây Ninh,Huyện Châu Thành,Xã Thái Bình,11.344962,106.046384,"11.314685,106.014697 – 11.368518,106.079447","Thái Bình, Châu Thành District, Tây Ninh, Vietnam"
Tỉnh Tây Ninh,Huyện Dương Minh Châu,Xã Chà Là,11.308012,106.216914,"11.253444,106.177292 – 11.328217,106.251043","Chà Là, Dương Minh Châu District, Tây Ninh, Vietnam"
Tỉnh Tây Ninh,Huyện Dương Minh Châu,Xã Phan,11.355186,106.188268,"11.343633,106.184561 – 11.367464,106.193384","xã Phan - núi Bà, Phan, Dương Minh Châu, Tây Ninh, Vietnam"
Tỉnh Tây Ninh,Huyện Dương Minh Châu,Xã Phước Minh,11.302731,106.311062,"11.269663,106.278091 – 11.426187,106.366539","Phước Minh, Dương Minh Châu District, Tây Ninh, Vietnam"
Tỉnh Tây Ninh,Huyện Dương Minh Châu,Xã Suối Đá,11.43847,106.240447,"11.346732,106.179075 – 11.470358,106.283484","Suối Đá, Dương Minh Châu District, Tây Ninh, Vietnam"
Tỉnh Tây Ninh,Huyện Tân Biên,Xã Mỏ Công,11.455551,106.034629,"11.441877,105.961075 – 11.489193,106.122436","Mỏ Công, Tân Biên, Tây Ninh, Vietnam"
Tỉnh Tây Ninh,Huyện Tân Biên,Xã Trà Vong,11.425756,106.075775,"11.391706,106.003576 – 11.446068,106.118133","Trà Vong, Tân Biên District, Tây Ninh, Vietnam"
Tỉnh Tây Ninh,Huyện Tân Biên,Xã Tân Phong,11.494389,106.028751,"11.461082,105.959676 – 11.52351,106.124907","Tân Phong, Tân Biên District, Tây Ninh, Vietnam"
Tỉnh Tây Ninh,Huyện Tân Châu,Xã Suối Dây,11.549765,106.216914,"11.469091,106.183206 – 11.634454,106.264373","Suối Dây, Tân Châu District, Tây Ninh, Vietnam"
Tỉnh Tây Ninh,Huyện Tân Châu,Xã Tân Phú,11.509769,106.146332,"11.47666,106.112952 – 11.531876,106.198826","Tân Phú, Tân Châu, Tây Ninh, Vietnam"
Tỉnh Tây Ninh,Thành phố Tây Ninh,Phường 4,11.300025,106.11399,"11.295104,106.104412 – 11.308591,106.129303","Phường 4, Tp. Tây Ninh, Tây Ninh, Vietnam"
Tỉnh Vĩnh Long,Huyện Mang Thít,Xã Mỹ An,10.231054,106.046384,"10.217583,106.018238 – 10.259097,106.062999","Mỹ An, Thành phố Vĩnh Long, Vĩnh Long, Vietnam"
Tỉnh Vĩnh Long,Huyện Tam Bình,Thị trấn Tam Bình,10.050164,106.000705,"10.019356,105.973778 – 10.084431,106.021972","Tam Bình, Vĩnh Long, Vietnam"
Tỉnh Vĩnh Long,Huyện Tam Bình,Xã Hòa Lộc,10.102674,106.01112,"10.075009,105.985858 – 10.137031,106.023989","Hoà Lộc, Tam Bình, Vĩnh Long, Vietnam"
Tỉnh Vĩnh Long,Huyện Tam Bình,Xã Ngãi Tứ,10.010367,105.905369,"9.965554,105.883741 – 10.058614,105.927515","Ngãi Tứ, Thị xã Bình Minh, Vĩnh Long, Vietnam"
Tỉnh Vĩnh Long,Huyện Trà Ôn,Thị trấn Trà Ôn,9.963558,105.924897,"9.931019,105.915756 – 9.988716,105.978842","tt. Trà Ôn, Thị xã Bình Minh, Vĩnh Long, Vietnam"
Tỉnh Vĩnh Long,Thị xã Bình Minh,Phường Cái Vồn,10.066562,105.808482,"10.047918,105.794595 – 10.081507,105.824696","Cái Vồn, Bình Minh, Vinh Long, Vietnam"
Tỉnh Vĩnh Long,Thị xã Bình Minh,Phường Thành Phước,10.066925,105.797345,"10.065569,105.795994 – 10.068267,105.798692","3Q8W+QW9, Phường Thạnh Phước, Bình Minh, Vĩnh Long, Vietnam"
Tỉnh Đắk Lắk,Huyện Cư Kuin,Xã Ea BHốk,12.569213,108.202167,"12.534435,108.139823 – 12.610689,108.225889","Ea Bhôk, Cư Kuin, Đắk Lắk, Vietnam"
Tỉnh Đồng Nai,Huyện Xuân Lộc,Xã Xuân Tâm,10.866663,107.444025,"10.765858,107.398224 – 10.969505,107.514267","Xuân Tâm, Xuân Lộc, Đồng Nai, Vietnam"
Tỉnh Đồng Tháp,Huyện Cao Lãnh,Xã Gáo Giồng,10.606672,105.629373,"10.552812,105.589696 – 10.672164,105.660077","Gáo Giồng, Cao Lãnh, Đồng Tháp, Vietnam"
Tỉnh Đồng Tháp,Huyện Hồng Ngự,Xã Phú Thuận B,10.757004,105.342391,"10.716779,105.315499 – 10.776819,105.353737","Phú Thuận B, Hồng Ngự, Đồng Tháp, Vietnam"
Tỉnh Đồng Tháp,Huyện Thanh Bình,Xã Tân Thạnh,10.576177,105.459531,"10.538752,105.436027 – 10.616205,105.494328","Tân Thạnh, Thanh Bình District, Dong Thap, Vietnam"
Tỉnh Đồng Tháp,Thành phố Sa Đéc,Phường 3,10.304323,105.762259,"10.295813,105.756455 – 10.312006,105.768664","phường 3, Thành phố Sa Đéc, Đồng Tháp, Vietnam"
Tỉnh Đồng Tháp,Thành phố Sa Đéc,Phường 4,10.291581,105.77253,"10.285986,105.76905 – 10.29841,105.779243","phường 4, Thành phố Sa Đéc, Đồng Tháp, Vietnam"
