{"DICT_PROVINCE": {"thanhphohanoi": {"provinceKeywords": ["thanhphohanoi", "hanoi", "hn"], "province": "Th\u00e0nh ph\u1ed1 H\u00e0 N\u1ed9i", "provinceShort": "H\u00e0 N\u1ed9i", "provinceLat": 21.027764, "provinceLon": 105.83416}, "tinhhagiang": {"provinceKeywords": ["tinhhagiang", "hagiang"], "province": "T\u1ec9nh H\u00e0 Giang", "provinceShort": "H\u00e0 Giang", "provinceLat": 22.766206, "provinceLon": 104.938885}, "tinhcaobang": {"provinceKeywords": ["tinhcaobang", "caobang"], "province": "T\u1ec9nh Cao B\u1eb1ng", "provinceShort": "Cao B\u1eb1ng", "provinceLat": 22.635689, "provinceLon": 106.252214}, "tinhbackan": {"provinceKeywords": ["tinhbackan", "backan"], "province": "T\u1ec9nh B\u1eafc K\u1ea1n", "provinceShort": "B\u1eafc K\u1ea1n", "provinceLat": 22.303292, "provinceLon": 105.876004}, "tinhtuyenquang": {"provinceKeywords": ["tinhtuyenquang", "tuyenquang"], "province": "T\u1ec9nh Tuy\u00ean Quang", "provinceShort": "Tuy\u00ean Quang", "provinceLat": 22.172671, "provinceLon": 105.313119}, "tinhlaocai": {"provinceKeywords": ["tinhlaocai", "laocai"], "province": "T\u1ec9nh L\u00e0o Cai", "provinceShort": "L\u00e0o Cai", "provinceLat": 22.275944, "provinceLon": 104.193092}, "tinhdienbien": {"provinceKeywords": ["tinhdienbien", "dienbien"], "province": "T\u1ec9nh \u0110i\u1ec7n Bi\u00ean", "provinceShort": "\u0110i\u1ec7n Bi\u00ean", "provinceLat": 21.809171, "provinceLon": 103.08179}, "tinhlaichau": {"provinceKeywords": ["tinhlaichau", "laichau"], "province": "T\u1ec9nh Lai Ch\u00e2u", "provinceShort": "Lai Ch\u00e2u", "provinceLat": 22.355483, "provinceLon": 103.266348}, "tinhsonla": {"provinceKeywords": ["tinhsonla", "sonla"], "province": "T\u1ec9nh S\u01a1n La", "provinceShort": "S\u01a1n La", "provinceLat": 21.172464, "provinceLon": 104.007235}, "tinhyenbai": {"provinceKeywords": ["tinhyenbai", "yenbai"], "province": "T\u1ec9nh Y\u00ean B\u00e1i", "provinceShort": "Y\u00ean B\u00e1i", "provinceLat": 21.683525, "provinceLon": 104.565527}, "tinhhoabinh": {"provinceKeywords": ["tinhhoabinh", "hoabinh"], "province": "T\u1ec9nh H\u00f2a B\u00ecnh", "provinceShort": "H\u00f2a B\u00ecnh", "provinceLat": 20.686127, "provinceLon": 105.313119}, "tinhthainguyen": {"provinceKeywords": ["tinhthainguyen", "thainguyen"], "province": "T\u1ec9nh Th\u00e1i Nguy\u00ean", "provinceShort": "Th\u00e1i Nguy\u00ean", "provinceLat": 21.561377, "provinceLon": 105.876004}, "tinhlangson": {"provinceKeywords": ["tinhlangson", "langson"], "province": "T\u1ec9nh L\u1ea1ng S\u01a1n", "provinceShort": "L\u1ea1ng S\u01a1n", "provinceLat": 21.856371, "provinceLon": 106.62913}, "tinhquangninh": {"provinceKeywords": ["tinhquangninh", "quangninh"], "province": "T\u1ec9nh Qu\u1ea3ng Ninh", "provinceShort": "Qu\u1ea3ng Ninh", "provinceLat": 21.24325, "provinceLon": 107.19572}, "tinhbacgiang": {"provinceKeywords": ["tinhbacgiang", "bacgiang"], "province": "T\u1ec9nh B\u1eafc Giang", "provinceShort": "B\u1eafc Giang", "provinceLat": 21.301495, "provinceLon": 106.62913}, "tinhphutho": {"provinceKeywords": ["tinhphutho", "phutho"], "province": "T\u1ec9nh Ph\u00fa Th\u1ecd", "provinceShort": "Ph\u00fa Th\u1ecd", "provinceLat": 21.260668, "provinceLon": 105.125896}, "tinhvinhphuc": {"provinceKeywords": ["tinhvinhphuc", "vinhphuc"], "province": "T\u1ec9nh V\u0129nh Ph\u00fac", "provinceShort": "V\u0129nh Ph\u00fac", "provinceLat": 21.360881, "provinceLon": 105.547437}, "tinhbacninh": {"provinceKeywords": ["tinhbacninh", "bacninh"], "province": "T\u1ec9nh B\u1eafc Ninh", "provinceShort": "B\u1eafc Ninh", "provinceLat": 21.121444, "provinceLon": 106.11105}, "tinhhaiduong": {"provinceKeywords": ["tinhhaiduong", "haiduong"], "province": "T\u1ec9nh H\u1ea3i D\u01b0\u01a1ng", "provinceShort": "H\u1ea3i D\u01b0\u01a1ng", "provinceLat": 20.90872, "provinceLon": 106.393478}, "thanhphohaiphong": {"provinceKeywords": ["thanhphohaiphong", "haiphong"], "province": "Th\u00e0nh ph\u1ed1 H\u1ea3i Ph\u00f2ng", "provinceShort": "H\u1ea3i Ph\u00f2ng", "provinceLat": 20.844912, "provinceLon": 106.688084}, "tinhhungyen": {"provinceKeywords": ["tinhhungyen", "hungyen"], "province": "T\u1ec9nh H\u01b0ng Y\u00ean", "provinceShort": "H\u01b0ng Y\u00ean", "provinceLat": 20.852571, "provinceLon": 106.016997}, "tinhthaibinh": {"provinceKeywords": ["tinhthaibinh", "thaibinh"], "province": "T\u1ec9nh Th\u00e1i B\u00ecnh", "provinceShort": "Th\u00e1i B\u00ecnh", "provinceLat": 20.538694, "provinceLon": 106.393478}, "tinhhanam": {"provinceKeywords": ["tinhhanam", "hanam"], "province": "T\u1ec9nh H\u00e0 Nam", "provinceShort": "H\u00e0 Nam", "provinceLat": 20.58352, "provinceLon": 105.92299}, "tinhnamdinh": {"provinceKeywords": ["tinhnamdinh", "namdinh"], "province": "T\u1ec9nh Nam \u0110\u1ecbnh", "provinceShort": "Nam \u0110\u1ecbnh", "provinceLat": 20.27918, "provinceLon": 106.205148}, "tinhninhbinh": {"provinceKeywords": ["tinhninhbinh", "ninhbinh"], "province": "T\u1ec9nh Ninh B\u00ecnh", "provinceShort": "Ninh B\u00ecnh", "provinceLat": 20.212997, "provinceLon": 105.92299}, "tinhthanhhoa": {"provinceKeywords": ["tinhthanhhoa", "thanhhoa"], "province": "T\u1ec9nh Thanh H\u00f3a", "provinceShort": "Thanh H\u00f3a", "provinceLat": 19.825986, "provinceLon": 105.594339}, "tinhnghean": {"provinceKeywords": ["tinhnghean", "nghean"], "province": "T\u1ec9nh Ngh\u1ec7 An", "provinceShort": "Ngh\u1ec7 An", "provinceLat": 19.148371, "provinceLon": 104.845462}, "tinhhatinh": {"provinceKeywords": ["tinhhatinh", "hatinh"], "province": "T\u1ec9nh H\u00e0 T\u0129nh", "provinceShort": "H\u00e0 T\u0129nh", "provinceLat": 18.245968, "provinceLon": 105.688179}, "tinhquangbinh": {"provinceKeywords": ["tinhquangbinh", "quangbinh"], "province": "T\u1ec9nh Qu\u1ea3ng B\u00ecnh", "provinceShort": "Qu\u1ea3ng B\u00ecnh", "provinceLat": 17.462758, "provinceLon": 106.252214}, "tinhquangtri": {"provinceKeywords": ["tinhquangtri", "quangtri"], "province": "T\u1ec9nh Qu\u1ea3ng Tr\u1ecb", "provinceShort": "Qu\u1ea3ng Tr\u1ecb", "provinceLat": 16.667698, "provinceLon": 107.006703}, "thanhphohue": {"provinceKeywords": ["thanhphohue", "hue"], "province": "Th\u00e0nh ph\u1ed1 Hu\u1ebf", "provinceShort": "Hu\u1ebf", "provinceLat": 16.463712, "provinceLon": 107.590863}, "thanhphodanang": {"provinceKeywords": ["thanhphodanang", "danang"], "province": "Th\u00e0nh ph\u1ed1 \u0110\u00e0 N\u1eb5ng", "provinceShort": "\u0110\u00e0 N\u1eb5ng", "provinceLat": 16.054407, "provinceLon": 108.202167}, "tinhquangnam": {"provinceKeywords": ["tinhquangnam", "quangnam"], "province": "T\u1ec9nh Qu\u1ea3ng Nam", "provinceShort": "Qu\u1ea3ng Nam", "provinceLat": 15.598002, "provinceLon": 107.858387}, "tinhquangngai": {"provinceKeywords": ["tinhquangngai", "quangngai"], "province": "T\u1ec9nh Qu\u1ea3ng Ng\u00e3i", "provinceShort": "Qu\u1ea3ng Ng\u00e3i", "provinceLat": 15.075984, "provinceLon": 108.712579}, "tinhbinhdinh": {"provinceKeywords": ["tinhbinhdinh", "binhdinh"], "province": "T\u1ec9nh B\u00ecnh \u0110\u1ecbnh", "provinceShort": "B\u00ecnh \u0110\u1ecbnh", "provinceLat": 14.166532, "provinceLon": 108.902683}, "tinhphuyen": {"provinceKeywords": ["tinhphuyen", "phuyen"], "province": "T\u1ec9nh Ph\u00fa Y\u00ean", "provinceShort": "Ph\u00fa Y\u00ean", "provinceLat": 13.088186, "provinceLon": 109.092876}, "tinhkhanhhoa": {"provinceKeywords": ["tinhkhanhhoa", "khanhhoa"], "province": "T\u1ec9nh Kh\u00e1nh H\u00f2a", "provinceShort": "Kh\u00e1nh H\u00f2a", "provinceLat": 12.209887, "provinceLon": 109.092876}, "tinhninhthuan": {"provinceKeywords": ["tinhninhthuan", "ninhthuan"], "province": "T\u1ec9nh Ninh Thu\u1eadn", "provinceShort": "Ninh Thu\u1eadn", "provinceLat": 11.699403, "provinceLon": 108.902683}, "tinhbinhthuan": {"provinceKeywords": ["tinhbinhthuan", "binhthuan"], "province": "T\u1ec9nh B\u00ecnh Thu\u1eadn", "provinceShort": "B\u00ecnh Thu\u1eadn", "provinceLat": 11.064489, "provinceLon": 107.953184}, "tinhkontum": {"provinceKeywords": ["tinhkontum", "kontum"], "province": "T\u1ec9nh Kon Tum", "provinceShort": "Kon Tum", "provinceLat": 14.517883, "provinceLon": 107.858387}, "tinhgialai": {"provinceKeywords": ["tinhgialai", "gialai"], "province": "T\u1ec9nh Gia Lai", "provinceShort": "Gia Lai", "provinceLat": 13.773701, "provinceLon": 108.237752}, "tinhdaklak": {"provinceKeywords": ["tinhdaklak", "daklak"], "province": "T\u1ec9nh \u0110\u1eafk L\u1eafk", "provinceShort": "\u0110\u1eafk L\u1eafk", "provinceLat": 12.710012, "provinceLon": 108.237752}, "tinhdaknong": {"provinceKeywords": ["tinhdaknong", "daknong"], "province": "T\u1ec9nh \u0110\u1eafk N\u00f4ng", "provinceShort": "\u0110\u1eafk N\u00f4ng", "provinceLat": 12.301768, "provinceLon": 107.763621}, "tinhlamdong": {"provinceKeywords": ["tinhlamdong", "lamdong"], "province": "T\u1ec9nh L\u00e2m \u0110\u1ed3ng", "provinceShort": "L\u00e2m \u0110\u1ed3ng", "provinceLat": 11.575279, "provinceLon": 108.142867}, "tinhbinhphuoc": {"provinceKeywords": ["tinhbinhphuoc", "binhphuoc"], "province": "T\u1ec9nh B\u00ecnh Ph\u01b0\u1edbc", "provinceShort": "B\u00ecnh Ph\u01b0\u1edbc", "provinceLat": 11.751189, "provinceLon": 106.723464}, "tinhtayninh": {"provinceKeywords": ["tinhtayninh", "tayninh"], "province": "T\u1ec9nh T\u00e2y Ninh", "provinceShort": "T\u00e2y Ninh", "provinceLat": 11.349477, "provinceLon": 106.064018}, "tinhbinhduong": {"provinceKeywords": ["tinhbinhduong", "binhduong"], "province": "T\u1ec9nh B\u00ecnh D\u01b0\u01a1ng", "provinceShort": "B\u00ecnh D\u01b0\u01a1ng", "provinceLat": 11.142383, "provinceLon": 106.62913}, "tinhdongnai": {"provinceKeywords": ["tinhdongnai", "dongnai"], "province": "T\u1ec9nh \u0110\u1ed3ng Nai", "provinceShort": "\u0110\u1ed3ng Nai", "provinceLat": 11.109764, "provinceLon": 107.19572}, "tinhbariavungtau": {"provinceKeywords": ["tinhbariavungtau", "bariavungtau", "vungtau", "baria"], "province": "T\u1ec9nh B\u00e0 R\u1ecba - V\u0169ng T\u00e0u", "provinceShort": "B\u00e0 R\u1ecba - V\u0169ng T\u00e0u", "provinceLat": 10.54174, "provinceLon": 107.242998}, "thanhphohochiminh": {"provinceKeywords": ["thanhphohochiminh", "hochiminh", "hcm"], "province": "Th\u00e0nh ph\u1ed1 H\u1ed3 Ch\u00ed Minh", "provinceShort": "H\u1ed3 Ch\u00ed Minh", "provinceLat": 10.823099, "provinceLon": 106.629664}, "tinhlongan": {"provinceKeywords": ["tinhlongan", "longan"], "province": "T\u1ec9nh Long An", "provinceShort": "Long An", "provinceLat": 10.685145, "provinceLon": 106.205148}, "tinhtiengiang": {"provinceKeywords": ["tinhtiengiang", "tiengiang"], "province": "T\u1ec9nh Ti\u1ec1n Giang", "provinceShort": "Ti\u1ec1n Giang", "provinceLat": 10.419005, "provinceLon": 106.299291}, "tinhbentre": {"provinceKeywords": ["tinhbentre", "bentre"], "province": "T\u1ec9nh B\u1ebfn Tre", "provinceShort": "B\u1ebfn Tre", "provinceLat": 10.108155, "provinceLon": 106.440587}, "tinhtravinh": {"provinceKeywords": ["tinhtravinh", "travinh"], "province": "T\u1ec9nh Tr\u00e0 Vinh", "provinceShort": "Tr\u00e0 Vinh", "provinceLat": 9.762666, "provinceLon": 106.440587}, "tinhvinhlong": {"provinceKeywords": ["tinhvinhlong", "vinhlong"], "province": "T\u1ec9nh V\u0129nh Long", "provinceShort": "V\u0129nh Long", "provinceLat": 10.086128, "provinceLon": 106.016997}, "tinhdongthap": {"provinceKeywords": ["tinhdongthap", "dongthap"], "province": "T\u1ec9nh \u0110\u1ed3ng Th\u00e1p", "provinceShort": "\u0110\u1ed3ng Th\u00e1p", "provinceLat": 10.493799, "provinceLon": 105.688179}, "tinhangiang": {"provinceKeywords": ["tinhangiang", "angiang"], "province": "T\u1ec9nh An Giang", "provinceShort": "An Giang", "provinceLat": 10.521584, "provinceLon": 105.125896}, "tinhkiengiang": {"provinceKeywords": ["tinhkiengiang", "kiengiang"], "province": "T\u1ec9nh Ki\u00ean Giang", "provinceShort": "Ki\u00ean Giang", "provinceLat": 9.824959, "provinceLon": 105.125896}, "thanhphocantho": {"provinceKeywords": ["thanhphocantho", "cantho"], "province": "Th\u00e0nh ph\u1ed1 C\u1ea7n Th\u01a1", "provinceShort": "C\u1ea7n Th\u01a1", "provinceLat": 10.045162, "provinceLon": 105.746854}, "tinhhaugiang": {"provinceKeywords": ["tinhhaugiang", "haugiang"], "province": "T\u1ec9nh H\u1eadu Giang", "provinceShort": "H\u1eadu Giang", "provinceLat": 9.757898, "provinceLon": 105.641253}, "tinhsoctrang": {"provinceKeywords": ["tinhsoctrang", "soctrang"], "province": "T\u1ec9nh S\u00f3c Tr\u0103ng", "provinceShort": "S\u00f3c Tr\u0103ng", "provinceLat": 9.617375, "provinceLon": 105.876004}, "tinhbaclieu": {"provinceKeywords": ["tinhbaclieu", "baclieu"], "province": "T\u1ec9nh B\u1ea1c Li\u00eau", "provinceShort": "B\u1ea1c Li\u00eau", "provinceLat": 9.289943, "provinceLon": 105.500548}, "tinhcamau": {"provinceKeywords": ["tinhcamau", "camau"], "province": "T\u1ec9nh C\u00e0 Mau", "provinceShort": "C\u00e0 Mau", "provinceLat": 8.96241, "provinceLon": 105.125896}}, "DICT_PROVINCE_DISTRICT": {"thanhphohanoi": {"quanbadinh": {"districtKeywords": ["quanbadinh", "badinh"], "district": "Qu\u1eadn Ba \u0110\u00ecnh", "districtType": "Qu\u1eadn", "districtShort": "Ba \u0110\u00ecnh", "districtLat": 21.035852, "districtLon": 105.826094}, "quanhoankiem": {"districtKeywords": ["quanhoankiem", "hoankiem"], "district": "Qu\u1eadn Ho\u00e0n Ki\u1ebfm", "districtType": "Qu\u1eadn", "districtShort": "Ho\u00e0n Ki\u1ebfm", "districtLat": 21.027266, "districtLon": 105.855451}, "quantayho": {"districtKeywords": ["quantayho", "tayho"], "district": "Qu\u1eadn T\u00e2y H\u1ed3", "districtType": "Qu\u1eadn", "districtShort": "T\u00e2y H\u1ed3", "districtLat": 21.073802, "districtLon": 105.823159}, "quanlongbien": {"districtKeywords": ["quanlongbien", "longbien"], "district": "Qu\u1eadn Long Bi\u00ean", "districtType": "Qu\u1eadn", "districtShort": "Long Bi\u00ean", "districtLat": 21.038676, "districtLon": 105.887749}, "quancaugiay": {"districtKeywords": ["quancaugiay", "caugiay"], "district": "Qu\u1eadn C\u1ea7u Gi\u1ea5y", "districtType": "Qu\u1eadn", "districtShort": "C\u1ea7u Gi\u1ea5y", "districtLat": 21.027601, "districtLon": 105.790872}, "quandongda": {"districtKeywords": ["quandongda", "dongda"], "district": "Qu\u1eadn \u0110\u1ed1ng \u0110a", "districtType": "Qu\u1eadn", "districtShort": "\u0110\u1ed1ng \u0110a", "districtLat": 21.014732, "districtLon": 105.834901}, "quanhaibatrung": {"districtKeywords": ["quanhaibatrung", "haibatrung"], "district": "Qu\u1eadn Hai B\u00e0 Tr\u01b0ng", "districtType": "Qu\u1eadn", "districtShort": "Hai B\u00e0 Tr\u01b0ng", "districtLat": 21.004087, "districtLon": 105.855451}, "quanhoangmai": {"districtKeywords": ["quanhoangmai", "hoangmai"], "district": "Qu\u1eadn Ho\u00e0ng Mai", "districtType": "Qu\u1eadn", "districtShort": "Ho\u00e0ng Mai", "districtLat": 20.971381, "districtLon": 105.864259}, "quanthanhxuan": {"districtKeywords": ["quanthanhxuan", "thanhxuan"], "district": "Qu\u1eadn Thanh Xu\u00e2n", "districtType": "Qu\u1eadn", "districtShort": "Thanh Xu\u00e2n", "districtLat": 20.993777, "districtLon": 105.811418}, "huyensocson": {"districtKeywords": ["huyensocson", "socson"], "district": "Huy\u1ec7n S\u00f3c S\u01a1n", "districtType": "Huy\u1ec7n", "districtShort": "S\u00f3c S\u01a1n", "districtLat": 21.262257, "districtLon": 105.852515}, "huyendonganh": {"districtKeywords": ["huyendonganh", "donganh"], "district": "Huy\u1ec7n \u0110\u00f4ng Anh", "districtType": "Huy\u1ec7n", "districtShort": "\u0110\u00f4ng Anh", "districtLat": 21.123164, "districtLon": 105.852515}, "huyengialam": {"districtKeywords": ["huyengialam", "gialam"], "district": "Huy\u1ec7n Gia L\u00e2m", "districtType": "Huy\u1ec7n", "districtShort": "Gia L\u00e2m", "districtLat": 21.031939, "districtLon": 105.958237}, "quannamtuliem": {"districtKeywords": ["quannamtuliem", "namtuliem"], "district": "Qu\u1eadn Nam T\u1eeb Li\u00eam", "districtType": "Qu\u1eadn", "districtShort": "Nam T\u1eeb Li\u00eam", "districtLat": 21.003461, "districtLon": 105.770329}, "huyenthanhtri": {"districtKeywords": ["huyenthanhtri", "thanhtri"], "district": "Huy\u1ec7n Thanh Tr\u00ec", "districtType": "Huy\u1ec7n", "districtShort": "Thanh Tr\u00ec", "districtLat": 20.927252, "districtLon": 105.840772}, "quanbactuliem": {"districtKeywords": ["quanbactuliem", "bactuliem"], "district": "Qu\u1eadn B\u1eafc T\u1eeb Li\u00eam", "districtType": "Qu\u1eadn", "districtShort": "B\u1eafc T\u1eeb Li\u00eam", "districtLat": 21.07302, "districtLon": 105.770329}, "huyenmelinh": {"districtKeywords": ["huyenmelinh", "melinh"], "district": "Huy\u1ec7n M\u00ea Linh", "districtType": "Huy\u1ec7n", "districtShort": "M\u00ea Linh", "districtLat": 21.182938, "districtLon": 105.711646}, "quanhadong": {"districtKeywords": ["quanhadong", "hadong"], "district": "Qu\u1eadn H\u00e0 \u0110\u00f4ng", "districtType": "Qu\u1eadn", "districtShort": "H\u00e0 \u0110\u00f4ng", "districtLat": 20.95709, "districtLon": 105.770329}, "thixasontay": {"districtKeywords": ["thixasontay", "sontay"], "district": "Th\u1ecb x\u00e3 S\u01a1n T\u00e2y", "districtType": "Th\u1ecb x\u00e3", "districtShort": "S\u01a1n T\u00e2y", "districtLat": 21.116226, "districtLon": 105.495325}, "huyenbavi": {"districtKeywords": ["huyenbavi", "bavi"], "district": "Huy\u1ec7n Ba V\u00ec", "districtType": "Huy\u1ec7n", "districtShort": "Ba V\u00ec", "districtLat": 21.120847, "districtLon": 105.383381}, "huyenphuctho": {"districtKeywords": ["huyenphuctho", "phuctho"], "district": "Huy\u1ec7n Ph\u00fac Th\u1ecd", "districtType": "Huy\u1ec7n", "districtShort": "Ph\u00fac Th\u1ecd", "districtLat": 21.113904, "districtLon": 105.582612}, "huyendanphuong": {"districtKeywords": ["huyendanphuong", "danphuong"], "district": "Huy\u1ec7n \u0110an Ph\u01b0\u1ee3ng", "districtType": "Huy\u1ec7n", "districtShort": "\u0110an Ph\u01b0\u1ee3ng", "districtLat": 21.105085, "districtLon": 105.676446}, "huyenhoaiduc": {"districtKeywords": ["huyenhoaiduc", "hoaiduc"], "district": "Huy\u1ec7n Ho\u00e0i \u0110\u1ee9c", "districtType": "Huy\u1ec7n", "districtShort": "Ho\u00e0i \u0110\u1ee9c", "districtLat": 21.033292, "districtLon": 105.699912}, "huyenquocoai": {"districtKeywords": ["huyenquocoai", "quocoai"], "district": "Huy\u1ec7n Qu\u1ed1c Oai", "districtType": "Huy\u1ec7n", "districtShort": "Qu\u1ed1c Oai", "districtLat": 20.972504, "districtLon": 105.606066}, "huyenthachthat": {"districtKeywords": ["huyenthachthat", "thachthat"], "district": "Huy\u1ec7n Th\u1ea1ch Th\u1ea5t", "districtType": "Huy\u1ec7n", "districtShort": "Th\u1ea1ch Th\u1ea5t", "districtLat": 21.025467, "districtLon": 105.535714}, "huyenchuongmy": {"districtKeywords": ["huyenchuongmy", "chuongmy"], "district": "Huy\u1ec7n Ch\u01b0\u01a1ng M\u1ef9", "districtType": "Huy\u1ec7n", "districtShort": "Ch\u01b0\u01a1ng M\u1ef9", "districtLat": 20.862652, "districtLon": 105.664714}, "huyenthanhoai": {"districtKeywords": ["huyenthanhoai", "thanhoai"], "district": "Huy\u1ec7n Thanh Oai", "districtType": "Huy\u1ec7n", "districtShort": "Thanh Oai", "districtLat": 20.864354, "districtLon": 105.770329}, "huyenthuongtin": {"districtKeywords": ["huyenthuongtin", "thuongtin"], "district": "Huy\u1ec7n Th\u01b0\u1eddng T\u00edn", "districtType": "Huy\u1ec7n", "districtShort": "Th\u01b0\u1eddng T\u00edn", "districtLat": 20.8555, "districtLon": 105.864259}, "huyenphuxuyen": {"districtKeywords": ["huyenphuxuyen", "phuxuyen"], "district": "Huy\u1ec7n Ph\u00fa Xuy\u00ean", "districtType": "Huy\u1ec7n", "districtShort": "Ph\u00fa Xuy\u00ean", "districtLat": 20.735203, "districtLon": 105.911242}, "huyenunghoa": {"districtKeywords": ["huyenunghoa", "unghoa"], "district": "Huy\u1ec7n \u1ee8ng H\u00f2a", "districtType": "Huy\u1ec7n", "districtShort": "\u1ee8ng H\u00f2a", "districtLat": 20.710382, "districtLon": 105.805547}, "huyenmyduc": {"districtKeywords": ["huyenmyduc", "myduc"], "district": "Huy\u1ec7n M\u1ef9 \u0110\u1ee9c", "districtType": "Huy\u1ec7n", "districtShort": "M\u1ef9 \u0110\u1ee9c", "districtLat": 20.672781, "districtLon": 105.711646}}, "tinhhagiang": {"thanhphohagiang": {"districtKeywords": ["thanhphohagiang", "hagiang"], "district": "Th\u00e0nh ph\u1ed1 H\u00e0 Giang", "districtType": "Th\u00e0nh ph\u1ed1", "districtShort": "H\u00e0 Giang", "districtLat": 22.802559, "districtLon": 104.978449}, "huyendongvan": {"districtKeywords": ["huyendongvan", "dongvan"], "district": "Huy\u1ec7n \u0110\u1ed3ng V\u0103n", "districtType": "Huy\u1ec7n", "districtShort": "\u0110\u1ed3ng V\u0103n", "districtLat": 23.224672, "districtLon": 105.242885}, "huyenmeovac": {"districtKeywords": ["huyenmeovac", "meovac"], "district": "Huy\u1ec7n M\u00e8o V\u1ea1c", "districtType": "Huy\u1ec7n", "districtShort": "M\u00e8o V\u1ea1c", "districtLat": 23.134105, "districtLon": 105.453672}, "huyenyenminh": {"districtKeywords": ["huyenyenminh", "yenminh"], "district": "Huy\u1ec7n Y\u00ean Minh", "districtType": "Huy\u1ec7n", "districtShort": "Y\u00ean Minh", "districtLat": 22.966945, "districtLon": 105.266293}, "huyenquanba": {"districtKeywords": ["huyenquanba", "quanba"], "district": "Huy\u1ec7n Qu\u1ea3n B\u1ea1", "districtType": "Huy\u1ec7n", "districtShort": "Qu\u1ea3n B\u1ea1", "districtLat": 23.087186, "districtLon": 104.985618}, "huyenvixuyen": {"districtKeywords": ["huyenvixuyen", "vixuyen"], "district": "Huy\u1ec7n V\u1ecb Xuy\u00ean", "districtType": "Huy\u1ec7n", "districtShort": "V\u1ecb Xuy\u00ean", "districtLat": 22.724134, "districtLon": 104.892167}, "huyenbacme": {"districtKeywords": ["huyenbacme", "bacme"], "district": "Huy\u1ec7n B\u1eafc M\u00ea", "districtType": "Huy\u1ec7n", "districtShort": "B\u1eafc M\u00ea", "districtLat": 22.781148, "districtLon": 105.266293}, "huyenhoangsuphi": {"districtKeywords": ["huyenhoangsuphi", "hoangsuphi"], "district": "Huy\u1ec7n Ho\u00e0ng Su Ph\u00ec", "districtType": "Huy\u1ec7n", "districtShort": "Ho\u00e0ng Su Ph\u00ec", "districtLat": 22.741717, "districtLon": 104.705431}, "huyenxinman": {"districtKeywords": ["huyenxinman", "xinman"], "district": "Huy\u1ec7n X\u00edn M\u1ea7n", "districtType": "Huy\u1ec7n", "districtShort": "X\u00edn M\u1ea7n", "districtLat": 22.665916, "districtLon": 104.518921}, "huyenbacquang": {"districtKeywords": ["huyenbacquang", "bacquang"], "district": "Huy\u1ec7n B\u1eafc Quang", "districtType": "Huy\u1ec7n", "districtShort": "B\u1eafc Quang", "districtLat": 22.445025, "districtLon": 104.892167}, "huyenquangbinh": {"districtKeywords": ["huyenquangbinh", "quangbinh"], "district": "Huy\u1ec7n Quang B\u00ecnh", "districtType": "Huy\u1ec7n", "districtShort": "Quang B\u00ecnh", "districtLat": 22.462439, "districtLon": 104.705431}}, "tinhcaobang": {"thanhphocaobang": {"districtKeywords": ["thanhphocaobang", "caobang"], "district": "Th\u00e0nh ph\u1ed1 Cao B\u1eb1ng", "districtType": "Th\u00e0nh ph\u1ed1", "districtShort": "Cao B\u1eb1ng", "districtLat": 22.666637, "districtLon": 106.263985}, "huyenbaolam": {"districtKeywords": ["huyenbaolam", "baolam"], "district": "Huy\u1ec7n B\u1ea3o L\u00e2m", "districtType": "Huy\u1ec7n", "districtShort": "B\u1ea3o L\u00e2m", "districtLat": 22.855622, "districtLon": 105.453672}, "huyenbaolac": {"districtKeywords": ["huyenbaolac", "baolac"], "district": "Huy\u1ec7n B\u1ea3o L\u1ea1c", "districtType": "Huy\u1ec7n", "districtShort": "B\u1ea3o L\u1ea1c", "districtLat": 22.920268, "districtLon": 105.735117}, "huyenhaquang": {"districtKeywords": ["huyenhaquang", "haquang"], "district": "Huy\u1ec7n H\u00e0 Qu\u1ea3ng", "districtType": "Huy\u1ec7n", "districtShort": "H\u00e0 Qu\u1ea3ng", "districtLat": 22.90254, "districtLon": 106.134571}, "huyentrungkhanh": {"districtKeywords": ["huyentrungkhanh", "trungkhanh"], "district": "Huy\u1ec7n Tr\u00f9ng Kh\u00e1nh", "districtType": "Huy\u1ec7n", "districtShort": "Tr\u00f9ng Kh\u00e1nh", "districtLat": 22.811772, "districtLon": 106.558407}, "huyenhalang": {"districtKeywords": ["huyenhalang", "halang"], "district": "Huy\u1ec7n H\u1ea1 Lang", "districtType": "Huy\u1ec7n", "districtShort": "H\u1ea1 Lang", "districtLat": 22.729872, "districtLon": 106.676292}, "huyenquanghoa": {"districtKeywords": ["huyenquanghoa", "quanghoa"], "district": "Huy\u1ec7n Qu\u1ea3ng H\u00f2a", "districtType": "Huy\u1ec7n", "districtShort": "Qu\u1ea3ng H\u00f2a", "districtLat": 22.68299, "districtLon": 106.464146}, "huyenhoaan": {"districtKeywords": ["huyenhoaan", "hoaan"], "district": "Huy\u1ec7n H\u00f2a An", "districtType": "Huy\u1ec7n", "districtShort": "H\u00f2a An", "districtLat": 22.758749, "districtLon": 106.18162}, "huyennguyenbinh": {"districtKeywords": ["huyennguyenbinh", "nguyenbinh"], "district": "Huy\u1ec7n Nguy\u00ean B\u00ecnh", "districtType": "Huy\u1ec7n", "districtShort": "Nguy\u00ean B\u00ecnh", "districtLat": 22.623086, "districtLon": 105.92299}, "huyenthachan": {"districtKeywords": ["huyenthachan", "thachan"], "district": "Huy\u1ec7n Th\u1ea1ch An", "districtType": "Huy\u1ec7n", "districtShort": "Th\u1ea1ch An", "districtLat": 22.466356, "districtLon": 106.322834}}, "tinhbackan": {"thanhphobackan": {"districtKeywords": ["thanhphobackan", "backan"], "district": "Th\u00e0nh Ph\u1ed1 B\u1eafc K\u1ea1n", "districtType": "Th\u00e0nh ph\u1ed1", "districtShort": "B\u1eafc K\u1ea1n", "districtLat": 22.144269, "districtLon": 105.834543}, "huyenpacnam": {"districtKeywords": ["huyenpacnam", "pacnam"], "district": "Huy\u1ec7n P\u00e1c N\u1eb7m", "districtType": "Huy\u1ec7n", "districtShort": "P\u00e1c N\u1eb7m", "districtLat": 22.62584, "districtLon": 105.664714}, "huyenbabe": {"districtKeywords": ["huyenbabe", "babe"], "district": "Huy\u1ec7n Ba B\u1ec3", "districtType": "Huy\u1ec7n", "districtShort": "Ba B\u1ec3", "districtLat": 22.363689, "districtLon": 105.735117}, "huyennganson": {"districtKeywords": ["huyennganson", "nganson"], "district": "Huy\u1ec7n Ng\u00e2n S\u01a1n", "districtType": "Huy\u1ec7n", "districtShort": "Ng\u00e2n S\u01a1n", "districtLat": 22.428179, "districtLon": 106.016997}, "huyenbachthong": {"districtKeywords": ["huyenbachthong", "bachthong"], "district": "Huy\u1ec7n B\u1ea1ch Th\u00f4ng", "districtType": "Huy\u1ec7n", "districtShort": "B\u1ea1ch Th\u00f4ng", "districtLat": 22.236079, "districtLon": 105.852515}, "huyenchodon": {"districtKeywords": ["huyenchodon", "chodon"], "district": "Huy\u1ec7n Ch\u1ee3 \u0110\u1ed3n", "districtType": "Huy\u1ec7n", "districtShort": "Ch\u1ee3 \u0110\u1ed3n", "districtLat": 22.196499, "districtLon": 105.547437}, "huyenchomoi": {"districtKeywords": ["huyenchomoi", "chomoi"], "district": "Huy\u1ec7n Ch\u1ee3 M\u1edbi", "districtType": "Huy\u1ec7n", "districtShort": "Ch\u1ee3 M\u1edbi", "districtLat": 21.983338, "districtLon": 105.82903}, "huyennari": {"districtKeywords": ["huyennari", "nari"], "district": "Huy\u1ec7n Na R\u00ec", "districtType": "Huy\u1ec7n", "districtShort": "Na R\u00ec", "districtLat": 22.14066, "districtLon": 106.11105}}, "tinhtuyenquang": {"thanhphotuyenquang": {"districtKeywords": ["thanhphotuyenquang", "tuyenquang"], "district": "Th\u00e0nh ph\u1ed1 Tuy\u00ean Quang", "districtType": "Th\u00e0nh ph\u1ed1", "districtShort": "Tuy\u00ean Quang", "districtLat": 21.776725, "districtLon": 105.22802}, "huyenlambinh": {"districtKeywords": ["huyenlambinh", "lambinh"], "district": "Huy\u1ec7n L\u00e2m B\u00ecnh", "districtType": "Huy\u1ec7n", "districtShort": "L\u00e2m B\u00ecnh", "districtLat": 22.502403, "districtLon": 105.266293}, "huyennahang": {"districtKeywords": ["huyennahang", "nahang"], "district": "Huy\u1ec7n Na Hang", "districtType": "Huy\u1ec7n", "districtShort": "Na Hang", "districtLat": 22.484209, "districtLon": 105.453672}, "huyenchiemhoa": {"districtKeywords": ["huyenchiemhoa", "chiemhoa"], "district": "Huy\u1ec7n Chi\u00eam H\u00f3a", "districtType": "Huy\u1ec7n", "districtShort": "Chi\u00eam H\u00f3a", "districtLat": 22.130677, "districtLon": 105.266293}, "huyenhamyen": {"districtKeywords": ["huyenhamyen", "hamyen"], "district": "Huy\u1ec7n H\u00e0m Y\u00ean", "districtType": "Huy\u1ec7n", "districtShort": "H\u00e0m Y\u00ean", "districtLat": 22.157165, "districtLon": 104.985618}, "huyenyenson": {"districtKeywords": ["huyenyenson", "yenson"], "district": "Huy\u1ec7n Y\u00ean S\u01a1n", "districtType": "Huy\u1ec7n", "districtShort": "Y\u00ean S\u01a1n", "districtLat": 21.944799, "districtLon": 105.266293}, "huyensonduong": {"districtKeywords": ["huyensonduong", "sonduong"], "district": "Huy\u1ec7n S\u01a1n D\u01b0\u01a1ng", "districtType": "Huy\u1ec7n", "districtShort": "S\u01a1n D\u01b0\u01a1ng", "districtLat": 21.657181, "districtLon": 105.359957}}, "tinhlaocai": {"thanhpholaocai": {"districtKeywords": ["thanhpholaocai", "laocai"], "district": "Th\u00e0nh ph\u1ed1 L\u00e0o Cai", "districtType": "Th\u00e0nh ph\u1ed1", "districtShort": "L\u00e0o Cai", "districtLat": 22.476617, "districtLon": 103.979572}, "huyenbatxat": {"districtKeywords": ["huyenbatxat", "batxat"], "district": "Huy\u1ec7n B\u00e1t X\u00e1t", "districtType": "Huy\u1ec7n", "districtShort": "B\u00e1t X\u00e1t", "districtLat": 22.553934, "districtLon": 103.682586}, "huyenmuongkhuong": {"districtKeywords": ["huyenmuongkhuong", "muongkhuong"], "district": "Huy\u1ec7n M\u01b0\u1eddng Kh\u01b0\u01a1ng", "districtType": "Huy\u1ec7n", "districtShort": "M\u01b0\u1eddng Kh\u01b0\u01a1ng", "districtLat": 22.678531, "districtLon": 104.123367}, "huyensimacai": {"districtKeywords": ["huyensimacai", "simacai"], "district": "Huy\u1ec7n Si Ma Cai", "districtType": "Huy\u1ec7n", "districtShort": "Si Ma Cai", "districtLat": 22.665984, "districtLon": 104.262851}, "huyenbacha": {"districtKeywords": ["huyenbacha", "bacha"], "district": "Huy\u1ec7n B\u1eafc H\u00e0", "districtType": "Huy\u1ec7n", "districtShort": "B\u1eafc H\u00e0", "districtLat": 22.496547, "districtLon": 104.332644}, "huyenbaothang": {"districtKeywords": ["huyenbaothang", "baothang"], "district": "Huy\u1ec7n B\u1ea3o Th\u1eafng", "districtType": "Huy\u1ec7n", "districtShort": "B\u1ea3o Th\u1eafng", "districtLat": 22.3267, "districtLon": 104.146605}, "huyenbaoyen": {"districtKeywords": ["huyenbaoyen", "baoyen"], "district": "Huy\u1ec7n B\u1ea3o Y\u00ean", "districtType": "Huy\u1ec7n", "districtShort": "B\u1ea3o Y\u00ean", "districtLat": 22.27633, "districtLon": 104.44904}, "thixasapa": {"districtKeywords": ["thixasapa", "sapa"], "district": "Th\u1ecb x\u00e3 Sa Pa", "districtType": "Th\u1ecb x\u00e3", "districtShort": "Sa Pa", "districtLat": 22.249717, "districtLon": 103.960809}, "huyenvanban": {"districtKeywords": ["huyenvanban", "vanban"], "district": "Huy\u1ec7n V\u0103n B\u00e0n", "districtType": "Huy\u1ec7n", "districtShort": "V\u0103n B\u00e0n", "districtLat": 22.089411, "districtLon": 104.193092}}, "tinhdienbien": {"thanhphodienbienphu": {"districtKeywords": ["thanhphodienbienphu", "dienbienphu"], "district": "Th\u00e0nh ph\u1ed1 \u0110i\u1ec7n Bi\u00ean Ph\u1ee7", "districtType": "Th\u00e0nh ph\u1ed1", "districtShort": "\u0110i\u1ec7n Bi\u00ean Ph\u1ee7", "districtLat": 21.40639, "districtLon": 103.032155}, "thixamuonglay": {"districtKeywords": ["thixamuonglay", "muonglay"], "district": "Th\u1ecb X\u00e3 M\u01b0\u1eddng Lay", "districtType": "Th\u1ecb x\u00e3", "districtShort": "M\u01b0\u1eddng Lay", "districtLat": 22.049873, "districtLon": 103.163499}, "huyenmuongnhe": {"districtKeywords": ["huyenmuongnhe", "muongnhe"], "district": "Huy\u1ec7n M\u01b0\u1eddng Nh\u00e9", "districtType": "Huy\u1ec7n", "districtShort": "M\u01b0\u1eddng Nh\u00e9", "districtLat": 22.184116, "districtLon": 102.483921}, "huyenmuongcha": {"districtKeywords": ["huyenmuongcha", "muongcha"], "district": "Huy\u1ec7n M\u01b0\u1eddng Ch\u00e0", "districtType": "Huy\u1ec7n", "districtShort": "M\u01b0\u1eddng Ch\u00e0", "districtLat": 21.852257, "districtLon": 103.127904}, "huyentuachua": {"districtKeywords": ["huyentuachua", "tuachua"], "district": "Huy\u1ec7n T\u1ee7a Ch\u00f9a", "districtType": "Huy\u1ec7n", "districtShort": "T\u1ee7a Ch\u00f9a", "districtLat": 21.923201, "districtLon": 103.404945}, "huyentuangiao": {"districtKeywords": ["huyentuangiao", "tuangiao"], "district": "Huy\u1ec7n Tu\u1ea7n Gi\u00e1o", "districtType": "Huy\u1ec7n", "districtShort": "Tu\u1ea7n Gi\u00e1o", "districtLat": 21.642702, "districtLon": 103.404945}, "huyendienbien": {"districtKeywords": ["huyendienbien", "dienbien"], "district": "Huy\u1ec7n \u0110i\u1ec7n Bi\u00ean", "districtType": "Huy\u1ec7n", "districtShort": "\u0110i\u1ec7n Bi\u00ean", "districtLat": 21.204477, "districtLon": 103.035694}, "huyendienbiendong": {"districtKeywords": ["huyendienbiendong", "dienbiendong"], "district": "Huy\u1ec7n \u0110i\u1ec7n Bi\u00ean \u0110\u00f4ng", "districtType": "Huy\u1ec7n", "districtShort": "\u0110i\u1ec7n Bi\u00ean \u0110\u00f4ng", "districtLat": 21.283509, "districtLon": 103.220183}, "huyenmuongang": {"districtKeywords": ["huyenmuongang", "muongang"], "district": "Huy\u1ec7n M\u01b0\u1eddng \u1ea2ng", "districtType": "Huy\u1ec7n", "districtShort": "M\u01b0\u1eddng \u1ea2ng", "districtLat": 21.564144, "districtLon": 103.220183}, "huyennampo": {"districtKeywords": ["huyennampo", "nampo"], "district": "Huy\u1ec7n N\u1eadm P\u1ed3", "districtType": "Huy\u1ec7n", "districtShort": "N\u1eadm P\u1ed3", "districtLat": 21.881525, "districtLon": 102.759485}}, "tinhlaichau": {"thanhpholaichau": {"districtKeywords": ["thanhpholaichau", "laichau"], "district": "Th\u00e0nh ph\u1ed1 Lai Ch\u00e2u", "districtType": "Th\u00e0nh ph\u1ed1", "districtShort": "Lai Ch\u00e2u", "districtLat": 22.386223, "districtLon": 103.470263}, "huyentamduong": {"districtKeywords": ["huyentamduong", "tamduong"], "district": "Huy\u1ec7n Tam \u0110\u01b0\u1eddng", "districtType": "Huy\u1ec7n", "districtShort": "Tam \u0110\u01b0\u1eddng", "districtLat": 22.349705, "districtLon": 103.61312}, "huyenmuongte": {"districtKeywords": ["huyenmuongte", "muongte"], "district": "Huy\u1ec7n M\u01b0\u1eddng T\u00e8", "districtType": "Huy\u1ec7n", "districtShort": "M\u01b0\u1eddng T\u00e8", "districtLat": 22.400379, "districtLon": 102.713512}, "huyensinho": {"districtKeywords": ["huyensinho", "sinho"], "district": "Huy\u1ec7n S\u00ecn H\u1ed3", "districtType": "Huy\u1ec7n", "districtShort": "S\u00ecn H\u1ed3", "districtLat": 22.211371, "districtLon": 103.31253}, "huyenphongtho": {"districtKeywords": ["huyenphongtho", "phongtho"], "district": "Huy\u1ec7n Phong Th\u1ed5", "districtType": "Huy\u1ec7n", "districtShort": "Phong Th\u1ed5", "districtLat": 22.577634, "districtLon": 103.404945}, "huyenthanuyen": {"districtKeywords": ["huyenthanuyen", "thanuyen"], "district": "Huy\u1ec7n Than Uy\u00ean", "districtType": "Huy\u1ec7n", "districtShort": "Than Uy\u00ean", "districtLat": 21.892211, "districtLon": 103.775263}, "huyentanuyen": {"districtKeywords": ["huyentanuyen", "tanuyen"], "district": "Huy\u1ec7n T\u00e2n Uy\u00ean", "districtType": "Huy\u1ec7n", "districtShort": "T\u00e2n Uy\u00ean", "districtLat": 22.086885, "districtLon": 103.682586}, "huyennamnhun": {"districtKeywords": ["huyennamnhun", "namnhun"], "district": "Huy\u1ec7n N\u1eadm Nh\u00f9n", "districtType": "Huy\u1ec7n", "districtShort": "N\u1eadm Nh\u00f9n", "districtLat": 22.234058, "districtLon": 103.035694}}, "tinhsonla": {"thanhphosonla": {"districtKeywords": ["thanhphosonla", "sonla"], "district": "Th\u00e0nh ph\u1ed1 S\u01a1n La", "districtType": "Th\u00e0nh ph\u1ed1", "districtShort": "S\u01a1n La", "districtLat": 21.326902, "districtLon": 103.914387}, "huyenquynhnhai": {"districtKeywords": ["huyenquynhnhai", "quynhnhai"], "district": "Huy\u1ec7n Qu\u1ef3nh Nhai", "districtType": "Huy\u1ec7n", "districtShort": "Qu\u1ef3nh Nhai", "districtLat": 21.713204, "districtLon": 103.682586}, "huyenthuanchau": {"districtKeywords": ["huyenthuanchau", "thuanchau"], "district": "Huy\u1ec7n Thu\u1eadn Ch\u00e2u", "districtType": "Huy\u1ec7n", "districtShort": "Thu\u1eadn Ch\u00e2u", "districtLat": 21.43295, "districtLon": 103.682586}, "huyenmuongla": {"districtKeywords": ["huyenmuongla", "muongla"], "district": "Huy\u1ec7n M\u01b0\u1eddng La", "districtType": "Huy\u1ec7n", "districtShort": "M\u01b0\u1eddng La", "districtLat": 21.495112, "districtLon": 104.053676}, "huyenbacyen": {"districtKeywords": ["huyenbacyen", "bacyen"], "district": "Huy\u1ec7n B\u1eafc Y\u00ean", "districtType": "Huy\u1ec7n", "districtShort": "B\u1eafc Y\u00ean", "districtLat": 21.276555, "districtLon": 104.425753}, "huyenphuyen": {"districtKeywords": ["huyenphuyen", "phuyen"], "district": "Huy\u1ec7n Ph\u00f9 Y\u00ean", "districtType": "Huy\u1ec7n", "districtShort": "Ph\u00f9 Y\u00ean", "districtLat": 21.158895, "districtLon": 104.705431}, "thixamocchau": {"districtKeywords": ["thixamocchau", "mocchau"], "district": "Th\u1ecb x\u00e3 M\u1ed9c Ch\u00e2u", "districtType": "Th\u1ecb x\u00e3", "districtShort": "M\u1ed9c Ch\u00e2u", "districtLat": 20.8445, "districtLon": 104.641293}, "huyenyenchau": {"districtKeywords": ["huyenyenchau", "yenchau"], "district": "Huy\u1ec7n Y\u00ean Ch\u00e2u", "districtType": "Huy\u1ec7n", "districtShort": "Y\u00ean Ch\u00e2u", "districtLat": 21.005001, "districtLon": 104.332644}, "huyenmaison": {"districtKeywords": ["huyenmaison", "maison"], "district": "Huy\u1ec7n Mai S\u01a1n", "districtType": "Huy\u1ec7n", "districtShort": "Mai S\u01a1n", "districtLat": 21.12191, "districtLon": 104.053676}, "huyensongma": {"districtKeywords": ["huyensongma", "songma"], "district": "Huy\u1ec7n S\u00f4ng M\u00e3", "districtType": "Huy\u1ec7n", "districtShort": "S\u00f4ng M\u00e3", "districtLat": 21.059325, "districtLon": 103.682586}, "huyensopcop": {"districtKeywords": ["huyensopcop", "sopcop"], "district": "Huy\u1ec7n S\u1ed1p C\u1ed9p", "districtType": "Huy\u1ec7n", "districtShort": "S\u1ed1p C\u1ed9p", "districtLat": 20.887452, "districtLon": 103.497426}, "huyenvanho": {"districtKeywords": ["huyenvanho", "vanho"], "district": "Huy\u1ec7n V\u00e2n H\u1ed3", "districtType": "Huy\u1ec7n", "districtShort": "V\u00e2n H\u1ed3", "districtLat": 20.793105, "districtLon": 104.763762}}, "tinhyenbai": {"thanhphoyenbai": {"districtKeywords": ["thanhphoyenbai", "yenbai"], "district": "Th\u00e0nh ph\u1ed1 Y\u00ean B\u00e1i", "districtType": "Th\u00e0nh ph\u1ed1", "districtShort": "Y\u00ean B\u00e1i", "districtLat": 21.716769, "districtLon": 104.898588}, "thixanghialo": {"districtKeywords": ["thixanghialo", "nghialo"], "district": "Th\u1ecb x\u00e3 Ngh\u0129a L\u1ed9", "districtType": "Th\u1ecb x\u00e3", "districtShort": "Ngh\u0129a L\u1ed9", "districtLat": 21.601877, "districtLon": 104.506265}, "huyenlucyen": {"districtKeywords": ["huyenlucyen", "lucyen"], "district": "Huy\u1ec7n L\u1ee5c Y\u00ean", "districtType": "Huy\u1ec7n", "districtShort": "L\u1ee5c Y\u00ean", "districtLat": 22.090005, "districtLon": 104.705431}, "huyenvanyen": {"districtKeywords": ["huyenvanyen", "vanyen"], "district": "Huy\u1ec7n V\u0103n Y\u00ean", "districtType": "Huy\u1ec7n", "districtShort": "V\u0103n Y\u00ean", "districtLat": 21.869843, "districtLon": 104.565527}, "huyenmucangchai": {"districtKeywords": ["huyenmucangchai", "mucangchai"], "district": "Huy\u1ec7n M\u00f9 C\u0103ng Ch\u1ea3i", "districtType": "Huy\u1ec7n", "districtShort": "M\u00f9 C\u0103ng Ch\u1ea3i", "districtLat": 21.767005, "districtLon": 104.146605}, "huyentranyen": {"districtKeywords": ["huyentranyen", "tranyen"], "district": "Huy\u1ec7n Tr\u1ea5n Y\u00ean", "districtType": "Huy\u1ec7n", "districtShort": "Tr\u1ea5n Y\u00ean", "districtLat": 21.616008, "districtLon": 104.798771}, "huyentramtau": {"districtKeywords": ["huyentramtau", "tramtau"], "district": "Huy\u1ec7n Tr\u1ea1m T\u1ea5u", "districtType": "Huy\u1ec7n", "districtShort": "Tr\u1ea1m T\u1ea5u", "districtLat": 21.462939, "districtLon": 104.425753}, "huyenvanchan": {"districtKeywords": ["huyenvanchan", "vanchan"], "district": "Huy\u1ec7n V\u0103n Ch\u1ea5n", "districtType": "Huy\u1ec7n", "districtShort": "V\u0103n Ch\u1ea5n", "districtLat": 21.429843, "districtLon": 104.798771}, "huyenyenbinh": {"districtKeywords": ["huyenyenbinh", "yenbinh"], "district": "Huy\u1ec7n Y\u00ean B\u00ecnh", "districtType": "Huy\u1ec7n", "districtShort": "Y\u00ean B\u00ecnh", "districtLat": 21.760588, "districtLon": 105.061587}}, "tinhhoabinh": {"thanhphohoabinh": {"districtKeywords": ["thanhphohoabinh", "hoabinh"], "district": "Th\u00e0nh ph\u1ed1 H\u00f2a B\u00ecnh", "districtType": "Th\u00e0nh ph\u1ed1", "districtShort": "H\u00f2a B\u00ecnh", "districtLat": 20.827515, "districtLon": 105.339079}, "huyendabac": {"districtKeywords": ["huyendabac", "dabac"], "district": "Huy\u1ec7n \u0110\u00e0 B\u1eafc", "districtType": "Huy\u1ec7n", "districtShort": "\u0110\u00e0 B\u1eafc", "districtLat": 20.838155, "districtLon": 105.172682}, "huyenluongson": {"districtKeywords": ["huyenluongson", "luongson"], "district": "Huy\u1ec7n L\u01b0\u01a1ng S\u01a1n", "districtType": "Huy\u1ec7n", "districtShort": "L\u01b0\u01a1ng S\u01a1n", "districtLat": 20.829319, "districtLon": 105.523991}, "huyenkimboi": {"districtKeywords": ["huyenkimboi", "kimboi"], "district": "Huy\u1ec7n Kim B\u00f4i", "districtType": "Huy\u1ec7n", "districtShort": "Kim B\u00f4i", "districtLat": 20.690113, "districtLon": 105.523991}, "huyencaophong": {"districtKeywords": ["huyencaophong", "caophong"], "district": "Huy\u1ec7n Cao Phong", "districtType": "Huy\u1ec7n", "districtShort": "Cao Phong", "districtLat": 20.707221, "districtLon": 105.336536}, "huyentanlac": {"districtKeywords": ["huyentanlac", "tanlac"], "district": "Huy\u1ec7n T\u00e2n L\u1ea1c", "districtType": "Huy\u1ec7n", "districtShort": "T\u00e2n L\u1ea1c", "districtLat": 20.622803, "districtLon": 105.242885}, "huyenmaichau": {"districtKeywords": ["huyenmaichau", "maichau"], "district": "Huy\u1ec7n Mai Ch\u00e2u", "districtType": "Huy\u1ec7n", "districtShort": "Mai Ch\u00e2u", "districtLat": 20.690134, "districtLon": 105.008989}, "huyenlacson": {"districtKeywords": ["huyenlacson", "lacson"], "district": "Huy\u1ec7n L\u1ea1c S\u01a1n", "districtType": "Huy\u1ec7n", "districtShort": "L\u1ea1c S\u01a1n", "districtLat": 20.441335, "districtLon": 105.453672}, "huyenyenthuy": {"districtKeywords": ["huyenyenthuy", "yenthuy"], "district": "Huy\u1ec7n Y\u00ean Th\u1ee7y", "districtType": "Huy\u1ec7n", "districtShort": "Y\u00ean Th\u1ee7y", "districtLat": 20.403225, "districtLon": 105.617794}, "huyenlacthuy": {"districtKeywords": ["huyenlacthuy", "lacthuy"], "district": "Huy\u1ec7n L\u1ea1c Th\u1ee7y", "districtType": "Huy\u1ec7n", "districtShort": "L\u1ea1c Th\u1ee7y", "districtLat": 20.482998, "districtLon": 105.758591}}, "tinhthainguyen": {"thanhphothainguyen": {"districtKeywords": ["thanhphothainguyen", "thainguyen"], "district": "Th\u00e0nh ph\u1ed1 Th\u00e1i Nguy\u00ean", "districtType": "Th\u00e0nh ph\u1ed1", "districtShort": "Th\u00e1i Nguy\u00ean", "districtLat": 21.567156, "districtLon": 105.825204}, "thanhphosongcong": {"districtKeywords": ["thanhphosongcong", "songcong"], "district": "Th\u00e0nh ph\u1ed1 S\u00f4ng C\u00f4ng", "districtType": "Th\u00e0nh ph\u1ed1", "districtShort": "S\u00f4ng C\u00f4ng", "districtLat": 21.477798, "districtLon": 105.842609}, "huyendinhhoa": {"districtKeywords": ["huyendinhhoa", "dinhhoa"], "district": "Huy\u1ec7n \u0110\u1ecbnh H\u00f3a", "districtType": "Huy\u1ec7n", "districtShort": "\u0110\u1ecbnh H\u00f3a", "districtLat": 21.887955, "districtLon": 105.617794}, "huyenphuluong": {"districtKeywords": ["huyenphuluong", "phuluong"], "district": "Huy\u1ec7n Ph\u00fa L\u01b0\u01a1ng", "districtType": "Huy\u1ec7n", "districtShort": "Ph\u00fa L\u01b0\u01a1ng", "districtLat": 21.786057, "districtLon": 105.711646}, "huyendonghy": {"districtKeywords": ["huyendonghy", "donghy"], "district": "Huy\u1ec7n \u0110\u1ed3ng H\u1ef7", "districtType": "Huy\u1ec7n", "districtShort": "\u0110\u1ed3ng H\u1ef7", "districtLat": 21.628639, "districtLon": 105.899496}, "huyenvonhai": {"districtKeywords": ["huyenvonhai", "vonhai"], "district": "Huy\u1ec7n V\u00f5 Nhai", "districtType": "Huy\u1ec7n", "districtShort": "V\u00f5 Nhai", "districtLat": 21.779341, "districtLon": 106.016997}, "huyendaitu": {"districtKeywords": ["huyendaitu", "daitu"], "district": "Huy\u1ec7n \u0110\u1ea1i T\u1eeb", "districtType": "Huy\u1ec7n", "districtShort": "\u0110\u1ea1i T\u1eeb", "districtLat": 21.630436, "districtLon": 105.641253}, "thanhphophoyen": {"districtKeywords": ["thanhphophoyen", "phoyen"], "district": "Th\u00e0nh ph\u1ed1 Ph\u1ed5 Y\u00ean", "districtType": "Th\u00e0nh ph\u1ed1", "districtShort": "Ph\u1ed5 Y\u00ean", "districtLat": 21.40136, "districtLon": 105.852515}, "huyenphubinh": {"districtKeywords": ["huyenphubinh", "phubinh"], "district": "Huy\u1ec7n Ph\u00fa B\u00ecnh", "districtType": "Huy\u1ec7n", "districtShort": "Ph\u00fa B\u00ecnh", "districtLat": 21.484977, "districtLon": 105.946487}}, "tinhlangson": {"thanhpholangson": {"districtKeywords": ["thanhpholangson", "langson"], "district": "Th\u00e0nh ph\u1ed1 L\u1ea1ng S\u01a1n", "districtType": "Th\u00e0nh ph\u1ed1", "districtShort": "L\u1ea1ng S\u01a1n", "districtLat": 21.853708, "districtLon": 106.761519}, "huyentrangdinh": {"districtKeywords": ["huyentrangdinh", "trangdinh"], "district": "Huy\u1ec7n Tr\u00e0ng \u0110\u1ecbnh", "districtType": "Huy\u1ec7n", "districtShort": "Tr\u00e0ng \u0110\u1ecbnh", "districtLat": 22.2873, "districtLon": 106.487707}, "huyenbinhgia": {"districtKeywords": ["huyenbinhgia", "binhgia"], "district": "Huy\u1ec7n B\u00ecnh Gia", "districtType": "Huy\u1ec7n", "districtShort": "B\u00ecnh Gia", "districtLat": 22.02897, "districtLon": 106.299291}, "huyenvanlang": {"districtKeywords": ["huyenvanlang", "vanlang"], "district": "Huy\u1ec7n V\u0103n L\u00e3ng", "districtType": "Huy\u1ec7n", "districtShort": "V\u0103n L\u00e3ng", "districtLat": 22.092483, "districtLon": 106.581979}, "huyencaoloc": {"districtKeywords": ["huyencaoloc", "caoloc"], "district": "Huy\u1ec7n Cao L\u1ed9c", "districtType": "Huy\u1ec7n", "districtShort": "Cao L\u1ed9c", "districtLat": 21.90363, "districtLon": 106.841437}, "huyenvanquan": {"districtKeywords": ["huyenvanquan", "vanquan"], "district": "Huy\u1ec7n V\u0103n Quan", "districtType": "Huy\u1ec7n", "districtShort": "V\u0103n Quan", "districtLat": 21.814979, "districtLon": 106.581979}, "huyenbacson": {"districtKeywords": ["huyenbacson", "bacson"], "district": "Huy\u1ec7n B\u1eafc S\u01a1n", "districtType": "Huy\u1ec7n", "districtShort": "B\u1eafc S\u01a1n", "districtLat": 21.843773, "districtLon": 106.299291}, "huyenhuulung": {"districtKeywords": ["huyenhuulung", "huulung"], "district": "Huy\u1ec7n H\u1eefu L\u0169ng", "districtType": "Huy\u1ec7n", "districtShort": "H\u1eefu L\u0169ng", "districtLat": 21.565982, "districtLon": 106.299291}, "huyenchilang": {"districtKeywords": ["huyenchilang", "chilang"], "district": "Huy\u1ec7n Chi L\u0103ng", "districtType": "Huy\u1ec7n", "districtShort": "Chi L\u0103ng", "districtLat": 21.650694, "districtLon": 106.605553}, "huyenlocbinh": {"districtKeywords": ["huyenlocbinh", "locbinh"], "district": "Huy\u1ec7n L\u1ed9c B\u00ecnh", "districtType": "Huy\u1ec7n", "districtShort": "L\u1ed9c B\u00ecnh", "districtLat": 21.775759, "districtLon": 106.959472}, "huyendinhlap": {"districtKeywords": ["huyendinhlap", "dinhlap"], "district": "Huy\u1ec7n \u0110\u00ecnh L\u1eadp", "districtType": "Huy\u1ec7n", "districtShort": "\u0110\u00ecnh L\u1eadp", "districtLat": 21.571198, "districtLon": 107.148452}}, "tinhquangninh": {"thanhphohalong": {"districtKeywords": ["thanhphohalong", "halong"], "district": "Th\u00e0nh ph\u1ed1 H\u1ea1 Long", "districtType": "Th\u00e0nh ph\u1ed1", "districtShort": "H\u1ea1 Long", "districtLat": 20.971198, "districtLon": 107.044807}, "thanhphomongcai": {"districtKeywords": ["thanhphomongcai", "mongcai"], "district": "Th\u00e0nh ph\u1ed1 M\u00f3ng C\u00e1i", "districtType": "Th\u00e0nh ph\u1ed1", "districtShort": "M\u00f3ng C\u00e1i", "districtLat": 21.526074, "districtLon": 107.972158}, "thanhphocampha": {"districtKeywords": ["thanhphocampha", "campha"], "district": "Th\u00e0nh ph\u1ed1 C\u1ea9m Ph\u1ea3", "districtType": "Th\u00e0nh ph\u1ed1", "districtShort": "C\u1ea9m Ph\u1ea3", "districtLat": 21.06812, "districtLon": 107.323909}, "thanhphouongbi": {"districtKeywords": ["thanhphouongbi", "uongbi"], "district": "Th\u00e0nh ph\u1ed1 U\u00f4ng B\u00ed", "districtType": "Th\u00e0nh ph\u1ed1", "districtShort": "U\u00f4ng B\u00ed", "districtLat": 21.033908, "districtLon": 106.764821}, "huyenbinhlieu": {"districtKeywords": ["huyenbinhlieu", "binhlieu"], "district": "Huy\u1ec7n B\u00ecnh Li\u00eau", "districtType": "Huy\u1ec7n", "districtShort": "B\u00ecnh Li\u00eau", "districtLat": 21.541016, "districtLon": 107.432196}, "huyentienyen": {"districtKeywords": ["huyentienyen", "tienyen"], "district": "Huy\u1ec7n Ti\u00ean Y\u00ean", "districtType": "Huy\u1ec7n", "districtShort": "Ti\u00ean Y\u00ean", "districtLat": 21.366688, "districtLon": 107.337579}, "huyendamha": {"districtKeywords": ["huyendamha", "damha"], "district": "Huy\u1ec7n \u0110\u1ea7m H\u00e0", "districtType": "Huy\u1ec7n", "districtShort": "\u0110\u1ea7m H\u00e0", "districtLat": 21.367031, "districtLon": 107.550515}, "huyenhaiha": {"districtKeywords": ["huyenhaiha", "haiha"], "district": "Huy\u1ec7n H\u1ea3i H\u00e0", "districtType": "Huy\u1ec7n", "districtShort": "H\u1ea3i H\u00e0", "districtLat": 21.489863, "districtLon": 107.692567}, "huyenbache": {"districtKeywords": ["huyenbache", "bache"], "district": "Huy\u1ec7n Ba Ch\u1ebd", "districtType": "Huy\u1ec7n", "districtShort": "Ba Ch\u1ebd", "districtLat": 21.294325, "districtLon": 107.148452}, "huyenvandon": {"districtKeywords": ["huyenvandon", "vandon"], "district": "Huy\u1ec7n V\u00e2n \u0110\u1ed3n", "districtType": "Huy\u1ec7n", "districtShort": "V\u00e2n \u0110\u1ed3n", "districtLat": 21.146734, "districtLon": 107.455856}, "thanhphodongtrieu": {"districtKeywords": ["thanhphodongtrieu", "dongtrieu"], "district": "Th\u00e0nh ph\u1ed1 \u0110\u00f4ng Tri\u1ec1u", "districtType": "Th\u00e0nh ph\u1ed1", "districtShort": "\u0110\u00f4ng Tri\u1ec1u", "districtLat": 21.095815, "districtLon": 106.605553}, "thixaquangyen": {"districtKeywords": ["thixaquangyen", "quangyen"], "district": "Th\u1ecb x\u00e3 Qu\u1ea3ng Y\u00ean", "districtType": "Th\u1ecb x\u00e3", "districtShort": "Qu\u1ea3ng Y\u00ean", "districtLat": 20.938742, "districtLon": 106.796489}, "huyencoto": {"districtKeywords": ["huyencoto", "coto"], "district": "Huy\u1ec7n C\u00f4 T\u00f4", "districtType": "Huy\u1ec7n", "districtShort": "C\u00f4 T\u00f4", "districtLat": 21.020593, "districtLon": 107.828769}}, "tinhbacgiang": {"thanhphobacgiang": {"districtKeywords": ["thanhphobacgiang", "bacgiang"], "district": "Th\u00e0nh ph\u1ed1 B\u1eafc Giang", "districtType": "Th\u00e0nh ph\u1ed1", "districtShort": "B\u1eafc Giang", "districtLat": 21.281992, "districtLon": 106.197477}, "huyenyenthe": {"districtKeywords": ["huyenyenthe", "yenthe"], "district": "Huy\u1ec7n Y\u00ean Th\u1ebf", "districtType": "Huy\u1ec7n", "districtShort": "Y\u00ean Th\u1ebf", "districtLat": 21.512877, "districtLon": 106.134571}, "huyentanyen": {"districtKeywords": ["huyentanyen", "tanyen"], "district": "Huy\u1ec7n T\u00e2n Y\u00ean", "districtType": "Huy\u1ec7n", "districtShort": "T\u00e2n Y\u00ean", "districtLat": 21.37852, "districtLon": 106.087533}, "huyenlanggiang": {"districtKeywords": ["huyenlanggiang", "langgiang"], "district": "Huy\u1ec7n L\u1ea1ng Giang", "districtType": "Huy\u1ec7n", "districtShort": "L\u1ea1ng Giang", "districtLat": 21.359987, "districtLon": 106.275751}, "huyenlucnam": {"districtKeywords": ["huyenlucnam", "lucnam"], "district": "Huy\u1ec7n L\u1ee5c Nam", "districtType": "Huy\u1ec7n", "districtShort": "L\u1ee5c Nam", "districtLat": 21.299663, "districtLon": 106.417031}, "huyenlucngan": {"districtKeywords": ["huyenlucngan", "lucngan"], "district": "Huy\u1ec7n L\u1ee5c Ng\u1ea1n", "districtType": "Huy\u1ec7n", "districtShort": "L\u1ee5c Ng\u1ea1n", "districtLat": 21.435404, "districtLon": 106.676292}, "huyensondong": {"districtKeywords": ["huyensondong", "sondong"], "district": "Huy\u1ec7n S\u01a1n \u0110\u1ed9ng", "districtType": "Huy\u1ec7n", "districtShort": "S\u01a1n \u0110\u1ed9ng", "districtLat": 21.323672, "districtLon": 106.86504}, "thixavietyen": {"districtKeywords": ["thixavietyen", "vietyen"], "district": "Th\u1ecb X\u00e3 Vi\u1ec7t Y\u00ean", "districtType": "Th\u1ecb x\u00e3", "districtShort": "Vi\u1ec7t Y\u00ean", "districtLat": 21.285863, "districtLon": 106.087533}, "huyenhiephoa": {"districtKeywords": ["huyenhiephoa", "hiephoa"], "district": "Huy\u1ec7n Hi\u1ec7p H\u00f2a", "districtType": "Huy\u1ec7n", "districtShort": "Hi\u1ec7p H\u00f2a", "districtLat": 21.345915, "districtLon": 105.946487}, "thixachu": {"districtKeywords": ["thixachu", "chu"], "district": "Th\u1ecb x\u00e3 Ch\u0169", "districtType": "Th\u1ecb x\u00e3", "districtShort": "Ch\u0169", "districtLat": 21.371614, "districtLon": 106.563833}}, "tinhphutho": {"thanhphoviettri": {"districtKeywords": ["thanhphoviettri", "viettri"], "district": "Th\u00e0nh ph\u1ed1 Vi\u1ec7t Tr\u00ec", "districtType": "Th\u00e0nh ph\u1ed1", "districtShort": "Vi\u1ec7t Tr\u00ec", "districtLat": 21.35701, "districtLon": 105.352633}, "thixaphutho": {"districtKeywords": ["thixaphutho", "phutho"], "district": "Th\u1ecb x\u00e3 Ph\u00fa Th\u1ecd", "districtType": "Th\u1ecb x\u00e3", "districtShort": "Ph\u00fa Th\u1ecd", "districtLat": 21.421979, "districtLon": 105.229699}, "huyendoanhung": {"districtKeywords": ["huyendoanhung", "doanhung"], "district": "Huy\u1ec7n \u0110oan H\u00f9ng", "districtType": "Huy\u1ec7n", "districtShort": "\u0110oan H\u00f9ng", "districtLat": 21.607164, "districtLon": 105.149287}, "huyenhahoa": {"districtKeywords": ["huyenhahoa", "hahoa"], "district": "Huy\u1ec7n H\u1ea1 H\u00f2a", "districtType": "Huy\u1ec7n", "districtShort": "H\u1ea1 H\u00f2a", "districtLat": 21.573599, "districtLon": 105.008989}, "huyenthanhba": {"districtKeywords": ["huyenthanhba", "thanhba"], "district": "Huy\u1ec7n Thanh Ba", "districtType": "Huy\u1ec7n", "districtShort": "Thanh Ba", "districtLat": 21.467705, "districtLon": 105.149287}, "huyenphuninh": {"districtKeywords": ["huyenphuninh", "phuninh"], "district": "Huy\u1ec7n Ph\u00f9 Ninh", "districtType": "Huy\u1ec7n", "districtShort": "Ph\u00f9 Ninh", "districtLat": 21.465222, "districtLon": 105.301411}, "huyenyenlap": {"districtKeywords": ["huyenyenlap", "yenlap"], "district": "Huy\u1ec7n Y\u00ean L\u1eadp", "districtType": "Huy\u1ec7n", "districtShort": "Y\u00ean L\u1eadp", "districtLat": 21.341063, "districtLon": 105.008989}, "huyencamkhe": {"districtKeywords": ["huyencamkhe", "camkhe"], "district": "Huy\u1ec7n C\u1ea9m Kh\u00ea", "districtType": "Huy\u1ec7n", "districtShort": "C\u1ea9m Kh\u00ea", "districtLat": 21.429804, "districtLon": 105.055742}, "huyentamnong": {"districtKeywords": ["huyentamnong", "tamnong"], "district": "Huy\u1ec7n Tam N\u00f4ng", "districtType": "Huy\u1ec7n", "districtShort": "Tam N\u00f4ng", "districtLat": 21.285869, "districtLon": 105.231183}, "huyenlamthao": {"districtKeywords": ["huyenlamthao", "lamthao"], "district": "Huy\u1ec7n L\u00e2m Thao", "districtType": "Huy\u1ec7n", "districtShort": "L\u00e2m Thao", "districtLat": 21.302614, "districtLon": 105.301411}, "huyenthanhson": {"districtKeywords": ["huyenthanhson", "thanhson"], "district": "Huy\u1ec7n Thanh S\u01a1n", "districtType": "Huy\u1ec7n", "districtShort": "Thanh S\u01a1n", "districtLat": 21.02402, "districtLon": 105.172682}, "huyenthanhthuy": {"districtKeywords": ["huyenthanhthuy", "thanhthuy"], "district": "Huy\u1ec7n Thanh Th\u1ee7y", "districtType": "Huy\u1ec7n", "districtShort": "Thanh Th\u1ee7y", "districtLat": 21.142173, "districtLon": 105.277998}, "huyentanson": {"districtKeywords": ["huyentanson", "tanson"], "district": "Huy\u1ec7n T\u00e2n S\u01a1n", "districtType": "Huy\u1ec7n", "districtShort": "T\u00e2n S\u01a1n", "districtLat": 21.226916, "districtLon": 104.985618}}, "tinhvinhphuc": {"thanhphovinhyen": {"districtKeywords": ["thanhphovinhyen", "vinhyen"], "district": "Th\u00e0nh ph\u1ed1 V\u0129nh Y\u00ean", "districtType": "Th\u00e0nh ph\u1ed1", "districtShort": "V\u0129nh Y\u00ean", "districtLat": 21.307285, "districtLon": 105.616315}, "thanhphophucyen": {"districtKeywords": ["thanhphophucyen", "phucyen"], "district": "Th\u00e0nh ph\u1ed1 Ph\u00fac Y\u00ean", "districtType": "Th\u00e0nh ph\u1ed1", "districtShort": "Ph\u00fac Y\u00ean", "districtLat": 21.281597, "districtLon": 105.724974}, "huyenlapthach": {"districtKeywords": ["huyenlapthach", "lapthach"], "district": "Huy\u1ec7n L\u1eadp Th\u1ea1ch", "districtType": "Huy\u1ec7n", "districtShort": "L\u1eadp Th\u1ea1ch", "districtLat": 21.43715, "districtLon": 105.477108}, "huyentamduong": {"districtKeywords": ["huyentamduong", "tamduong"], "district": "Huy\u1ec7n Tam D\u01b0\u01a1ng", "districtType": "Huy\u1ec7n", "districtShort": "Tam D\u01b0\u01a1ng", "districtLat": 21.371378, "districtLon": 105.559162}, "huyentamdao": {"districtKeywords": ["huyentamdao", "tamdao"], "district": "Huy\u1ec7n Tam \u0110\u1ea3o", "districtType": "Huy\u1ec7n", "districtShort": "Tam \u0110\u1ea3o", "districtLat": 21.474706, "districtLon": 105.570887}, "huyenbinhxuyen": {"districtKeywords": ["huyenbinhxuyen", "binhxuyen"], "district": "Huy\u1ec7n B\u00ecnh Xuy\u00ean", "districtType": "Huy\u1ec7n", "districtShort": "B\u00ecnh Xuy\u00ean", "districtLat": 21.313857, "districtLon": 105.676446}, "huyenyenlac": {"districtKeywords": ["huyenyenlac", "yenlac"], "district": "Huy\u1ec7n Y\u00ean L\u1ea1c", "districtType": "Huy\u1ec7n", "districtShort": "Y\u00ean L\u1ea1c", "districtLat": 21.19622, "districtLon": 105.570887}, "huyenvinhtuong": {"districtKeywords": ["huyenvinhtuong", "vinhtuong"], "district": "Huy\u1ec7n V\u0129nh T\u01b0\u1eddng", "districtType": "Huy\u1ec7n", "districtShort": "V\u0129nh T\u01b0\u1eddng", "districtLat": 21.238727, "districtLon": 105.488828}, "huyensonglo": {"districtKeywords": ["huyensonglo", "songlo"], "district": "Huy\u1ec7n S\u00f4ng L\u00f4", "districtType": "Huy\u1ec7n", "districtShort": "S\u00f4ng L\u00f4", "districtLat": 21.456467, "districtLon": 105.395094}}, "tinhbacninh": {"thanhphobacninh": {"districtKeywords": ["thanhphobacninh", "bacninh"], "district": "Th\u00e0nh ph\u1ed1 B\u1eafc Ninh", "districtType": "Th\u00e0nh ph\u1ed1", "districtShort": "B\u1eafc Ninh", "districtLat": 21.178177, "districtLon": 106.071026}, "huyenyenphong": {"districtKeywords": ["huyenyenphong", "yenphong"], "district": "Huy\u1ec7n Y\u00ean Phong", "districtType": "Huy\u1ec7n", "districtShort": "Y\u00ean Phong", "districtLat": 21.194143, "districtLon": 105.958237}, "thixaquevo": {"districtKeywords": ["thixaquevo", "quevo"], "district": "Th\u1ecb x\u00e3 Qu\u1ebf V\u00f5", "districtType": "Th\u1ecb x\u00e3", "districtShort": "Qu\u1ebf V\u00f5", "districtLat": 21.137731, "districtLon": 106.18162}, "huyentiendu": {"districtKeywords": ["huyentiendu", "tiendu"], "district": "Huy\u1ec7n Ti\u00ean Du", "districtType": "Huy\u1ec7n", "districtShort": "Ti\u00ean Du", "districtLat": 21.117831, "districtLon": 106.028751}, "thanhphotuson": {"districtKeywords": ["thanhphotuson", "tuson"], "district": "Th\u00e0nh ph\u1ed1 T\u1eeb S\u01a1n", "districtType": "Th\u00e0nh ph\u1ed1", "districtShort": "T\u1eeb S\u01a1n", "districtLat": 21.118833, "districtLon": 105.959784}, "thixathuanthanh": {"districtKeywords": ["thixathuanthanh", "thuanthanh"], "district": "Th\u1ecb x\u00e3 Thu\u1eadn Th\u00e0nh", "districtType": "Th\u1ecb x\u00e3", "districtShort": "Thu\u1eadn Th\u00e0nh", "districtLat": 21.0438, "districtLon": 106.075775}, "huyengiabinh": {"districtKeywords": ["huyengiabinh", "giabinh"], "district": "Huy\u1ec7n Gia B\u00ecnh", "districtType": "Huy\u1ec7n", "districtShort": "Gia B\u00ecnh", "districtLat": 21.076407, "districtLon": 106.216914}, "huyenluongtai": {"districtKeywords": ["huyenluongtai", "luongtai"], "district": "Huy\u1ec7n L\u01b0\u01a1ng T\u00e0i", "districtType": "Huy\u1ec7n", "districtShort": "L\u01b0\u01a1ng T\u00e0i", "districtLat": 21.027815, "districtLon": 106.240447}}, "tinhhaiduong": {"thanhphohaiduong": {"districtKeywords": ["thanhphohaiduong", "haiduong"], "district": "Th\u00e0nh ph\u1ed1 H\u1ea3i D\u01b0\u01a1ng", "districtType": "Th\u00e0nh ph\u1ed1", "districtShort": "H\u1ea3i D\u01b0\u01a1ng", "districtLat": 20.937341, "districtLon": 106.314554}, "thanhphochilinh": {"districtKeywords": ["thanhphochilinh", "chilinh"], "district": "Th\u00e0nh ph\u1ed1 Ch\u00ed Linh", "districtType": "Th\u00e0nh ph\u1ed1", "districtShort": "Ch\u00ed Linh", "districtLat": 21.11325, "districtLon": 106.303195}, "huyennamsach": {"districtKeywords": ["huyennamsach", "namsach"], "district": "Huy\u1ec7n Nam S\u00e1ch", "districtType": "Huy\u1ec7n", "districtShort": "Nam S\u00e1ch", "districtLat": 21.018602, "districtLon": 106.334606}, "thixakinhmon": {"districtKeywords": ["thixakinhmon", "kinhmon"], "district": "Th\u1ecb x\u00e3 Kinh M\u00f4n", "districtType": "Th\u1ecb x\u00e3", "districtShort": "Kinh M\u00f4n", "districtLat": 21.012735, "districtLon": 106.511271}, "huyenkimthanh": {"districtKeywords": ["huyenkimthanh", "kimthanh"], "district": "Huy\u1ec7n Kim Th\u00e0nh", "districtType": "Huy\u1ec7n", "districtShort": "Kim Th\u00e0nh", "districtLat": 20.932973, "districtLon": 106.499489}, "huyenthanhha": {"districtKeywords": ["huyenthanhha", "thanhha"], "district": "Huy\u1ec7n Thanh H\u00e0", "districtType": "Huy\u1ec7n", "districtShort": "Thanh H\u00e0", "districtLat": 20.929538, "districtLon": 106.417031}, "huyencamgiang": {"districtKeywords": ["huyencamgiang", "camgiang"], "district": "Huy\u1ec7n C\u1ea9m Gi\u00e0ng", "districtType": "Huy\u1ec7n", "districtShort": "C\u1ea9m Gi\u00e0ng", "districtLat": 20.947949, "districtLon": 106.22868}, "huyenbinhgiang": {"districtKeywords": ["huyenbinhgiang", "binhgiang"], "district": "Huy\u1ec7n B\u00ecnh Giang", "districtType": "Huy\u1ec7n", "districtShort": "B\u00ecnh Giang", "districtLat": 20.870356, "districtLon": 106.193384}, "huyengialoc": {"districtKeywords": ["huyengialoc", "gialoc"], "district": "Huy\u1ec7n Gia L\u1ed9c", "districtType": "Huy\u1ec7n", "districtShort": "Gia L\u1ed9c", "districtLat": 20.86123, "districtLon": 106.287521}, "huyentuky": {"districtKeywords": ["huyentuky", "tuky"], "district": "Huy\u1ec7n T\u1ee9 K\u1ef3", "districtType": "Huy\u1ec7n", "districtShort": "T\u1ee9 K\u1ef3", "districtLat": 20.803485, "districtLon": 106.405254}, "huyenninhgiang": {"districtKeywords": ["huyenninhgiang", "ninhgiang"], "district": "Huy\u1ec7n Ninh Giang", "districtType": "Huy\u1ec7n", "districtShort": "Ninh Giang", "districtLat": 20.749109, "districtLon": 106.369927}, "huyenthanhmien": {"districtKeywords": ["huyenthanhmien", "thanhmien"], "district": "Huy\u1ec7n Thanh Mi\u1ec7n", "districtType": "Huy\u1ec7n", "districtShort": "Thanh Mi\u1ec7n", "districtLat": 20.775502, "districtLon": 106.216914}}, "thanhphohaiphong": {"quanhongbang": {"districtKeywords": ["quanhongbang", "hongbang"], "district": "Qu\u1eadn H\u1ed3ng B\u00e0ng", "districtType": "Qu\u1eadn", "districtShort": "H\u1ed3ng B\u00e0ng", "districtLat": 20.874724, "districtLon": 106.649762}, "quanngoquyen": {"districtKeywords": ["quanngoquyen", "ngoquyen"], "district": "Qu\u1eadn Ng\u00f4 Quy\u1ec1n", "districtType": "Qu\u1eadn", "districtShort": "Ng\u00f4 Quy\u1ec1n", "districtLat": 20.857881, "districtLon": 106.702825}, "quanlechan": {"districtKeywords": ["quanlechan", "lechan"], "district": "Qu\u1eadn L\u00ea Ch\u00e2n", "districtType": "Qu\u1eadn", "districtShort": "L\u00ea Ch\u00e2n", "districtLat": 20.839723, "districtLon": 106.682188}, "quanhaian": {"districtKeywords": ["quanhaian", "haian"], "district": "Qu\u1eadn H\u1ea3i An", "districtType": "Qu\u1eadn", "districtShort": "H\u1ea3i An", "districtLat": 20.817103, "districtLon": 106.735258}, "quankienan": {"districtKeywords": ["quankienan", "kienan"], "district": "Qu\u1eadn Ki\u1ebfn An", "districtType": "Qu\u1eadn", "districtShort": "Ki\u1ebfn An", "districtLat": 20.809753, "districtLon": 106.635025}, "quandoson": {"districtKeywords": ["quandoson", "doson"], "district": "Qu\u1eadn \u0110\u1ed3 S\u01a1n", "districtType": "Qu\u1eadn", "districtShort": "\u0110\u1ed3 S\u01a1n", "districtLat": 20.727546, "districtLon": 106.764748}, "quanduongkinh": {"districtKeywords": ["quanduongkinh", "duongkinh"], "district": "Qu\u1eadn D\u01b0\u01a1ng Kinh", "districtType": "Qu\u1eadn", "districtShort": "D\u01b0\u01a1ng Kinh", "districtLat": 20.778443, "districtLon": 106.717567}, "thanhphothuynguyen": {"districtKeywords": ["thanhphothuynguyen", "thuynguyen"], "district": "Th\u00e0nh ph\u1ed1 Th\u1ee7y Nguy\u00ean", "districtType": "Th\u00e0nh ph\u1ed1", "districtShort": "Th\u1ee7y Nguy\u00ean", "districtLat": 20.952422, "districtLon": 106.65271}, "quananduong": {"districtKeywords": ["quananduong", "anduong"], "district": "Qu\u1eadn An D\u01b0\u01a1ng", "districtType": "Qu\u1eadn", "districtShort": "An D\u01b0\u01a1ng", "districtLat": 20.879738, "districtLon": 106.570193}, "huyenanlao": {"districtKeywords": ["huyenanlao", "anlao"], "district": "Huy\u1ec7n An L\u00e3o", "districtType": "Huy\u1ec7n", "districtShort": "An L\u00e3o", "districtLat": 20.823117, "districtLon": 106.558407}, "huyenkienthuy": {"districtKeywords": ["huyenkienthuy", "kienthuy"], "district": "Huy\u1ec7n Ki\u1ebfn Th\u1ee5y", "districtType": "Huy\u1ec7n", "districtShort": "Ki\u1ebfn Th\u1ee5y", "districtLat": 20.731737, "districtLon": 106.664501}, "huyentienlang": {"districtKeywords": ["huyentienlang", "tienlang"], "district": "Huy\u1ec7n Ti\u00ean L\u00e3ng", "districtType": "Huy\u1ec7n", "districtShort": "Ti\u00ean L\u00e3ng", "districtLat": 20.692514, "districtLon": 106.593766}, "huyenvinhbao": {"districtKeywords": ["huyenvinhbao", "vinhbao"], "district": "Huy\u1ec7n V\u0129nh B\u1ea3o", "districtType": "Huy\u1ec7n", "districtShort": "V\u0129nh B\u1ea3o", "districtLat": 20.693673, "districtLon": 106.464146}, "huyencathai": {"districtKeywords": ["huyencathai", "cathai"], "district": "Huy\u1ec7n C\u00e1t H\u1ea3i", "districtType": "Huy\u1ec7n", "districtShort": "C\u00e1t H\u1ea3i", "districtLat": 20.814045, "districtLon": 106.994895}, "huyenbachlongvi": {"districtKeywords": ["huyenbachlongvi", "bachlongvi"], "district": "Huy\u1ec7n B\u1ea1ch Long V\u0129", "districtType": "Huy\u1ec7n", "districtShort": "B\u1ea1ch Long V\u0129", "districtLat": 20.131144, "districtLon": 107.731053}}, "tinhhungyen": {"thanhphohungyen": {"districtKeywords": ["thanhphohungyen", "hungyen"], "district": "Th\u00e0nh ph\u1ed1 H\u01b0ng Y\u00ean", "districtType": "Th\u00e0nh ph\u1ed1", "districtShort": "H\u01b0ng Y\u00ean", "districtLat": 20.654682, "districtLon": 106.057849}, "huyenvanlam": {"districtKeywords": ["huyenvanlam", "vanlam"], "district": "Huy\u1ec7n V\u0103n L\u00e2m", "districtType": "Huy\u1ec7n", "districtShort": "V\u0103n L\u00e2m", "districtLat": 20.978841, "districtLon": 106.028751}, "huyenvangiang": {"districtKeywords": ["huyenvangiang", "vangiang"], "district": "Huy\u1ec7n V\u0103n Giang", "districtType": "Huy\u1ec7n", "districtShort": "V\u0103n Giang", "districtLat": 20.93926, "districtLon": 105.958237}, "huyenyenmy": {"districtKeywords": ["huyenyenmy", "yenmy"], "district": "Huy\u1ec7n Y\u00ean M\u1ef9", "districtType": "Huy\u1ec7n", "districtShort": "Y\u00ean M\u1ef9", "districtLat": 20.88619, "districtLon": 106.028751}, "thixamyhao": {"districtKeywords": ["thixamyhao", "myhao"], "district": "Th\u1ecb x\u00e3 M\u1ef9 H\u00e0o", "districtType": "Th\u1ecb x\u00e3", "districtShort": "M\u1ef9 H\u00e0o", "districtLat": 20.925738, "districtLon": 106.099291}, "huyenanthi": {"districtKeywords": ["huyenanthi", "anthi"], "district": "Huy\u1ec7n \u00c2n Thi", "districtType": "Huy\u1ec7n", "districtShort": "\u00c2n Thi", "districtLat": 20.809961, "districtLon": 106.099291}, "huyenkhoaichau": {"districtKeywords": ["huyenkhoaichau", "khoaichau"], "district": "Huy\u1ec7n Kho\u00e1i Ch\u00e2u", "districtType": "Huy\u1ec7n", "districtShort": "Kho\u00e1i Ch\u00e2u", "districtLat": 20.83165, "districtLon": 105.993491}, "huyenkimdong": {"districtKeywords": ["huyenkimdong", "kimdong"], "district": "Huy\u1ec7n Kim \u0110\u1ed9ng", "districtType": "Huy\u1ec7n", "districtShort": "Kim \u0110\u1ed9ng", "districtLat": 20.747229, "districtLon": 106.028751}, "huyentienlu": {"districtKeywords": ["huyentienlu", "tienlu"], "district": "Huy\u1ec7n Ti\u00ean L\u1eef", "districtType": "Huy\u1ec7n", "districtShort": "Ti\u00ean L\u1eef", "districtLat": 20.691952, "districtLon": 106.12281}, "huyenphucu": {"districtKeywords": ["huyenphucu", "phucu"], "district": "Huy\u1ec7n Ph\u00f9 C\u1eeb", "districtType": "Huy\u1ec7n", "districtShort": "Ph\u00f9 C\u1eeb", "districtLat": 20.708337, "districtLon": 106.193384}}, "tinhthaibinh": {"thanhphothaibinh": {"districtKeywords": ["thanhphothaibinh", "thaibinh"], "district": "Th\u00e0nh ph\u1ed1 Th\u00e1i B\u00ecnh", "districtType": "Th\u00e0nh ph\u1ed1", "districtShort": "Th\u00e1i B\u00ecnh", "districtLat": 20.446347, "districtLon": 106.336583}, "huyenquynhphu": {"districtKeywords": ["huyenquynhphu", "quynhphu"], "district": "Huy\u1ec7n Qu\u1ef3nh Ph\u1ee5", "districtType": "Huy\u1ec7n", "districtShort": "Qu\u1ef3nh Ph\u1ee5", "districtLat": 20.656596, "districtLon": 106.369927}, "huyenhungha": {"districtKeywords": ["huyenhungha", "hungha"], "district": "Huy\u1ec7n H\u01b0ng H\u00e0", "districtType": "Huy\u1ec7n", "districtShort": "H\u01b0ng H\u00e0", "districtLat": 20.590375, "districtLon": 106.216914}, "huyendonghung": {"districtKeywords": ["huyendonghung", "donghung"], "district": "Huy\u1ec7n \u0110\u00f4ng H\u01b0ng", "districtType": "Huy\u1ec7n", "districtShort": "\u0110\u00f4ng H\u01b0ng", "districtLat": 20.564092, "districtLon": 106.369927}, "huyenthaithuy": {"districtKeywords": ["huyenthaithuy", "thaithuy"], "district": "Huy\u1ec7n Th\u00e1i Th\u1ee5y", "districtType": "Huy\u1ec7n", "districtShort": "Th\u00e1i Th\u1ee5y", "districtLat": 20.550379, "districtLon": 106.511271}, "huyentienhai": {"districtKeywords": ["huyentienhai", "tienhai"], "district": "Huy\u1ec7n Ti\u1ec1n H\u1ea3i", "districtType": "Huy\u1ec7n", "districtShort": "Ti\u1ec1n H\u1ea3i", "districtLat": 20.360941, "districtLon": 106.558407}, "huyenkienxuong": {"districtKeywords": ["huyenkienxuong", "kienxuong"], "district": "Huy\u1ec7n Ki\u1ebfn X\u01b0\u01a1ng", "districtType": "Huy\u1ec7n", "districtShort": "Ki\u1ebfn X\u01b0\u01a1ng", "districtLat": 20.374595, "districtLon": 106.417031}, "huyenvuthu": {"districtKeywords": ["huyenvuthu", "vuthu"], "district": "Huy\u1ec7n V\u0169 Th\u01b0", "districtType": "Huy\u1ec7n", "districtShort": "V\u0169 Th\u01b0", "districtLat": 20.423938, "districtLon": 106.263983}}, "tinhhanam": {"thanhphophuly": {"districtKeywords": ["thanhphophuly", "phuly"], "district": "Th\u00e0nh ph\u1ed1 Ph\u1ee7 L\u00fd", "districtType": "Th\u00e0nh ph\u1ed1", "districtShort": "Ph\u1ee7 L\u00fd", "districtLat": 20.531693, "districtLon": 105.917629}, "thixaduytien": {"districtKeywords": ["thixaduytien", "duytien"], "district": "Th\u1ecb x\u00e3 Duy Ti\u00ean", "districtType": "Th\u1ecb x\u00e3", "districtShort": "Duy Ti\u00ean", "districtLat": 20.638109, "districtLon": 105.958237}, "thixakimbang": {"districtKeywords": ["thixakimbang", "kimbang"], "district": "Th\u1ecb x\u00e3 Kim B\u1ea3ng", "districtType": "Th\u1ecb x\u00e3", "districtShort": "Kim B\u1ea3ng", "districtLat": 20.579595, "districtLon": 105.870762}, "huyenthanhliem": {"districtKeywords": ["huyenthanhliem", "thanhliem"], "district": "Huy\u1ec7n Thanh Li\u00eam", "districtType": "Huy\u1ec7n", "districtShort": "Thanh Li\u00eam", "districtLat": 20.469906, "districtLon": 105.899496}, "huyenbinhluc": {"districtKeywords": ["huyenbinhluc", "binhluc"], "district": "Huy\u1ec7n B\u00ecnh L\u1ee5c", "districtType": "Huy\u1ec7n", "districtShort": "B\u00ecnh L\u1ee5c", "districtLat": 20.502989, "districtLon": 106.040506}, "huyenlynhan": {"districtKeywords": ["huyenlynhan", "lynhan"], "district": "Huy\u1ec7n L\u00fd Nh\u00e2n", "districtType": "Huy\u1ec7n", "districtShort": "L\u00fd Nh\u00e2n", "districtLat": 20.555301, "districtLon": 106.099291}}, "tinhnamdinh": {"thanhphonamdinh": {"districtKeywords": ["thanhphonamdinh", "namdinh"], "district": "Th\u00e0nh ph\u1ed1 Nam \u0110\u1ecbnh", "districtType": "Th\u00e0nh ph\u1ed1", "districtShort": "Nam \u0110\u1ecbnh", "districtLat": 20.438868, "districtLon": 106.169671}, "huyenvuban": {"districtKeywords": ["huyenvuban", "vuban"], "district": "Huy\u1ec7n V\u1ee5 B\u1ea3n", "districtType": "Huy\u1ec7n", "districtShort": "V\u1ee5 B\u1ea3n", "districtLat": 20.370142, "districtLon": 106.099291}, "huyenyyen": {"districtKeywords": ["huyenyyen", "yyen"], "district": "Huy\u1ec7n \u00dd Y\u00ean", "districtType": "Huy\u1ec7n", "districtShort": "\u00dd Y\u00ean", "districtLat": 20.368498, "districtLon": 105.993491}, "huyennghiahung": {"districtKeywords": ["huyennghiahung", "nghiahung"], "district": "Huy\u1ec7n Ngh\u0129a H\u01b0ng", "districtType": "Huy\u1ec7n", "districtShort": "Ngh\u0129a H\u01b0ng", "districtLat": 20.073248, "districtLon": 106.18162}, "huyennamtruc": {"districtKeywords": ["huyennamtruc", "namtruc"], "district": "Huy\u1ec7n Nam Tr\u1ef1c", "districtType": "Huy\u1ec7n", "districtShort": "Nam Tr\u1ef1c", "districtLat": 20.335893, "districtLon": 106.216914}, "huyentrucninh": {"districtKeywords": ["huyentrucninh", "trucninh"], "district": "Huy\u1ec7n Tr\u1ef1c Ninh", "districtType": "Huy\u1ec7n", "districtShort": "Tr\u1ef1c Ninh", "districtLat": 20.243376, "districtLon": 106.216914}, "huyenxuantruong": {"districtKeywords": ["huyenxuantruong", "xuantruong"], "district": "Huy\u1ec7n Xu\u00e2n Tr\u01b0\u1eddng", "districtType": "Huy\u1ec7n", "districtShort": "Xu\u00e2n Tr\u01b0\u1eddng", "districtLat": 20.299331, "districtLon": 106.358153}, "huyengiaothuy": {"districtKeywords": ["huyengiaothuy", "giaothuy"], "district": "Huy\u1ec7n Giao Th\u1ee7y", "districtType": "Huy\u1ec7n", "districtShort": "Giao Th\u1ee7y", "districtLat": 20.226883, "districtLon": 106.511271}, "huyenhaihau": {"districtKeywords": ["huyenhaihau", "haihau"], "district": "Huy\u1ec7n H\u1ea3i H\u1eadu", "districtType": "Huy\u1ec7n", "districtShort": "H\u1ea3i H\u1eadu", "districtLat": 20.156888, "districtLon": 106.275751}}, "tinhninhbinh": {"thanhphotamdiep": {"districtKeywords": ["thanhphotamdiep", "tamdiep"], "district": "Th\u00e0nh ph\u1ed1 Tam \u0110i\u1ec7p", "districtType": "Th\u00e0nh ph\u1ed1", "districtShort": "Tam \u0110i\u1ec7p", "districtLat": 20.150675, "districtLon": 105.902252}, "huyennhoquan": {"districtKeywords": ["huyennhoquan", "nhoquan"], "district": "Huy\u1ec7n Nho Quan", "districtType": "Huy\u1ec7n", "districtShort": "Nho Quan", "districtLat": 20.297627, "districtLon": 105.758591}, "huyengiavien": {"districtKeywords": ["huyengiavien", "giavien"], "district": "Huy\u1ec7n Gia Vi\u1ec5n", "districtType": "Huy\u1ec7n", "districtShort": "Gia Vi\u1ec5n", "districtLat": 20.3353, "districtLon": 105.852515}, "thanhphohoalu": {"districtKeywords": ["thanhphohoalu", "hoalu"], "district": "Th\u00e0nh ph\u1ed1 Hoa L\u01b0", "districtType": "Th\u00e0nh ph\u1ed1", "districtShort": "Hoa L\u01b0", "districtLat": 20.250615, "districtLon": 105.974454}, "huyenyenkhanh": {"districtKeywords": ["huyenyenkhanh", "yenkhanh"], "district": "Huy\u1ec7n Y\u00ean Kh\u00e1nh", "districtType": "Huy\u1ec7n", "districtShort": "Y\u00ean Kh\u00e1nh", "districtLat": 20.187228, "districtLon": 106.075775}, "huyenkimson": {"districtKeywords": ["huyenkimson", "kimson"], "district": "Huy\u1ec7n Kim S\u01a1n", "districtType": "Huy\u1ec7n", "districtShort": "Kim S\u01a1n", "districtLat": 20.046233, "districtLon": 106.099291}, "huyenyenmo": {"districtKeywords": ["huyenyenmo", "yenmo"], "district": "Huy\u1ec7n Y\u00ean M\u00f4", "districtType": "Huy\u1ec7n", "districtShort": "Y\u00ean M\u00f4", "districtLat": 20.137029, "districtLon": 105.993491}}, "tinhthanhhoa": {"thanhphothanhhoa": {"districtKeywords": ["thanhphothanhhoa", "thanhhoa"], "district": "Th\u00e0nh ph\u1ed1 Thanh H\u00f3a", "districtType": "Th\u00e0nh ph\u1ed1", "districtShort": "Thanh H\u00f3a", "districtLat": 19.806692, "districtLon": 105.785182}, "thixabimson": {"districtKeywords": ["thixabimson", "bimson"], "district": "Th\u1ecb x\u00e3 B\u1ec9m S\u01a1n", "districtType": "Th\u1ecb x\u00e3", "districtShort": "B\u1ec9m S\u01a1n", "districtLat": 20.084895, "districtLon": 105.85752}, "thanhphosamson": {"districtKeywords": ["thanhphosamson", "samson"], "district": "Th\u00e0nh ph\u1ed1 S\u1ea7m S\u01a1n", "districtType": "Th\u00e0nh ph\u1ed1", "districtShort": "S\u1ea7m S\u01a1n", "districtLat": 19.763501, "districtLon": 105.898123}, "huyenmuonglat": {"districtKeywords": ["huyenmuonglat", "muonglat"], "district": "Huy\u1ec7n M\u01b0\u1eddng L\u00e1t", "districtType": "Huy\u1ec7n", "districtShort": "M\u01b0\u1eddng L\u00e1t", "districtLat": 20.494133, "districtLon": 104.588836}, "huyenquanhoa": {"districtKeywords": ["huyenquanhoa", "quanhoa"], "district": "Huy\u1ec7n Quan H\u00f3a", "districtType": "Huy\u1ec7n", "districtShort": "Quan H\u00f3a", "districtLat": 20.483043, "districtLon": 104.985618}, "huyenbathuoc": {"districtKeywords": ["huyenbathuoc", "bathuoc"], "district": "Huy\u1ec7n B\u00e1 Th\u01b0\u1edbc", "districtType": "Huy\u1ec7n", "districtShort": "B\u00e1 Th\u01b0\u1edbc", "districtLat": 20.365336, "districtLon": 105.266293}, "huyenquanson": {"districtKeywords": ["huyenquanson", "quanson"], "district": "Huy\u1ec7n Quan S\u01a1n", "districtType": "Huy\u1ec7n", "districtShort": "Quan S\u01a1n", "districtLat": 20.212333, "districtLon": 104.892167}, "huyenlangchanh": {"districtKeywords": ["huyenlangchanh", "langchanh"], "district": "Huy\u1ec7n Lang Ch\u00e1nh", "districtType": "Huy\u1ec7n", "districtShort": "Lang Ch\u00e1nh", "districtLat": 20.166759, "districtLon": 105.149287}, "huyenngoclac": {"districtKeywords": ["huyenngoclac", "ngoclac"], "district": "Huy\u1ec7n Ng\u1ecdc L\u1eb7c", "districtType": "Huy\u1ec7n", "districtShort": "Ng\u1ecdc L\u1eb7c", "districtLat": 20.078589, "districtLon": 105.359957}, "huyencamthuy": {"districtKeywords": ["huyencamthuy", "camthuy"], "district": "Huy\u1ec7n C\u1ea9m Th\u1ee7y", "districtType": "Huy\u1ec7n", "districtShort": "C\u1ea9m Th\u1ee7y", "districtLat": 20.184101, "districtLon": 105.477108}, "huyenthachthanh": {"districtKeywords": ["huyenthachthanh", "thachthanh"], "district": "Huy\u1ec7n Th\u1ea1ch Th\u00e0nh", "districtType": "Huy\u1ec7n", "districtShort": "Th\u1ea1ch Th\u00e0nh", "districtLat": 20.217781, "districtLon": 105.617794}, "huyenhatrung": {"districtKeywords": ["huyenhatrung", "hatrung"], "district": "Huy\u1ec7n H\u00e0 Trung", "districtType": "Huy\u1ec7n", "districtShort": "H\u00e0 Trung", "districtLat": 20.011117, "districtLon": 105.852515}, "huyenvinhloc": {"districtKeywords": ["huyenvinhloc", "vinhloc"], "district": "Huy\u1ec7n V\u0129nh L\u1ed9c", "districtType": "Huy\u1ec7n", "districtShort": "V\u0129nh L\u1ed9c", "districtLat": 20.063973, "districtLon": 105.652983}, "huyenyendinh": {"districtKeywords": ["huyenyendinh", "yendinh"], "district": "Huy\u1ec7n Y\u00ean \u0110\u1ecbnh", "districtType": "Huy\u1ec7n", "districtShort": "Y\u00ean \u0110\u1ecbnh", "districtLat": 19.998689, "districtLon": 105.606066}, "huyenthoxuan": {"districtKeywords": ["huyenthoxuan", "thoxuan"], "district": "Huy\u1ec7n Th\u1ecd Xu\u00e2n", "districtType": "Huy\u1ec7n", "districtShort": "Th\u1ecd Xu\u00e2n", "districtLat": 19.905912, "districtLon": 105.477108}, "huyenthuongxuan": {"districtKeywords": ["huyenthuongxuan", "thuongxuan"], "district": "Huy\u1ec7n Th\u01b0\u1eddng Xu\u00e2n", "districtType": "Huy\u1ec7n", "districtShort": "Th\u01b0\u1eddng Xu\u00e2n", "districtLat": 19.901279, "districtLon": 105.266293}, "huyentrieuson": {"districtKeywords": ["huyentrieuson", "trieuson"], "district": "Huy\u1ec7n Tri\u1ec7u S\u01a1n", "districtType": "Huy\u1ec7n", "districtShort": "Tri\u1ec7u S\u01a1n", "districtLat": 19.851239, "districtLon": 105.570887}, "huyenthieuhoa": {"districtKeywords": ["huyenthieuhoa", "thieuhoa"], "district": "Huy\u1ec7n Thi\u1ec7u H\u00f3a", "districtType": "Huy\u1ec7n", "districtShort": "Thi\u1ec7u H\u00f3a", "districtLat": 19.889182, "districtLon": 105.664714}, "huyenhoanghoa": {"districtKeywords": ["huyenhoanghoa", "hoanghoa"], "district": "Huy\u1ec7n Ho\u1eb1ng H\u00f3a", "districtType": "Huy\u1ec7n", "districtShort": "Ho\u1eb1ng H\u00f3a", "districtLat": 19.821685, "districtLon": 105.899496}, "huyenhauloc": {"districtKeywords": ["huyenhauloc", "hauloc"], "district": "Huy\u1ec7n H\u1eadu L\u1ed9c", "districtType": "Huy\u1ec7n", "districtShort": "H\u1eadu L\u1ed9c", "districtLat": 19.926888, "districtLon": 105.887749}, "huyenngason": {"districtKeywords": ["huyenngason", "ngason"], "district": "Huy\u1ec7n Nga S\u01a1n", "districtType": "Huy\u1ec7n", "districtShort": "Nga S\u01a1n", "districtLat": 19.998188, "districtLon": 105.993491}, "huyennhuxuan": {"districtKeywords": ["huyennhuxuan", "nhuxuan"], "district": "Huy\u1ec7n Nh\u01b0 Xu\u00e2n", "districtType": "Huy\u1ec7n", "districtShort": "Nh\u01b0 Xu\u00e2n", "districtLat": 19.614914, "districtLon": 105.359957}, "huyennhuthanh": {"districtKeywords": ["huyennhuthanh", "nhuthanh"], "district": "Huy\u1ec7n Nh\u01b0 Thanh", "districtType": "Huy\u1ec7n", "districtShort": "Nh\u01b0 Thanh", "districtLat": 19.573312, "districtLon": 105.570887}, "huyennongcong": {"districtKeywords": ["huyennongcong", "nongcong"], "district": "Huy\u1ec7n N\u00f4ng C\u1ed1ng", "districtType": "Huy\u1ec7n", "districtShort": "N\u00f4ng C\u1ed1ng", "districtLat": 19.611328, "districtLon": 105.664714}, "huyenquangxuong": {"districtKeywords": ["huyenquangxuong", "quangxuong"], "district": "Huy\u1ec7n Qu\u1ea3ng X\u01b0\u01a1ng", "districtType": "Huy\u1ec7n", "districtShort": "Qu\u1ea3ng X\u01b0\u01a1ng", "districtLat": 19.691338, "districtLon": 105.805547}, "thixanghison": {"districtKeywords": ["thixanghison", "nghison"], "district": "Th\u1ecb x\u00e3 Nghi S\u01a1n", "districtType": "Th\u1ecb x\u00e3", "districtShort": "Nghi S\u01a1n", "districtLat": 19.396843, "districtLon": 105.735117}}, "tinhnghean": {"thanhphovinh": {"districtKeywords": ["thanhphovinh", "vinh"], "district": "Th\u00e0nh ph\u1ed1 Vinh", "districtType": "Th\u00e0nh ph\u1ed1", "districtShort": "Vinh", "districtLat": 18.67641, "districtLon": 105.676845}, "thixathaihoa": {"districtKeywords": ["thixathaihoa", "thaihoa"], "district": "Th\u1ecb x\u00e3 Th\u00e1i H\u00f2a", "districtType": "Th\u1ecb x\u00e3", "districtShort": "Th\u00e1i H\u00f2a", "districtLat": 19.324004, "districtLon": 105.420336}, "huyenquephong": {"districtKeywords": ["huyenquephong", "quephong"], "district": "Huy\u1ec7n Qu\u1ebf Phong", "districtType": "Huy\u1ec7n", "districtShort": "Qu\u1ebf Phong", "districtLat": 19.747794, "districtLon": 104.892167}, "huyenquychau": {"districtKeywords": ["huyenquychau", "quychau"], "district": "Huy\u1ec7n Qu\u1ef3 Ch\u00e2u", "districtType": "Huy\u1ec7n", "districtShort": "Qu\u1ef3 Ch\u00e2u", "districtLat": 19.546306, "districtLon": 105.079123}, "huyenkyson": {"districtKeywords": ["huyenkyson", "kyson"], "district": "Huy\u1ec7n K\u1ef3 S\u01a1n", "districtType": "Huy\u1ec7n", "districtShort": "K\u1ef3 S\u01a1n", "districtLat": 19.429591, "districtLon": 104.239594}, "huyentuongduong": {"districtKeywords": ["huyentuongduong", "tuongduong"], "district": "Huy\u1ec7n T\u01b0\u01a1ng D\u01b0\u01a1ng", "districtType": "Huy\u1ec7n", "districtShort": "T\u01b0\u01a1ng D\u01b0\u01a1ng", "districtLat": 19.264013, "districtLon": 104.565527}, "huyennghiadan": {"districtKeywords": ["huyennghiadan", "nghiadan"], "district": "Huy\u1ec7n Ngh\u0129a \u0110\u00e0n", "districtType": "Huy\u1ec7n", "districtShort": "Ngh\u0129a \u0110\u00e0n", "districtLat": 19.400335, "districtLon": 105.430238}, "huyenquyhop": {"districtKeywords": ["huyenquyhop", "quyhop"], "district": "Huy\u1ec7n Qu\u1ef3 H\u1ee3p", "districtType": "Huy\u1ec7n", "districtShort": "Qu\u1ef3 H\u1ee3p", "districtLat": 19.352892, "districtLon": 105.172682}, "huyenquynhluu": {"districtKeywords": ["huyenquynhluu", "quynhluu"], "district": "Huy\u1ec7n Qu\u1ef3nh L\u01b0u", "districtType": "Huy\u1ec7n", "districtShort": "Qu\u1ef3nh L\u01b0u", "districtLat": 19.198935, "districtLon": 105.617794}, "huyenconcuong": {"districtKeywords": ["huyenconcuong", "concuong"], "district": "Huy\u1ec7n Con Cu\u00f4ng", "districtType": "Huy\u1ec7n", "districtShort": "Con Cu\u00f4ng", "districtLat": 19.013059, "districtLon": 104.798771}, "huyentanky": {"districtKeywords": ["huyentanky", "tanky"], "district": "Huy\u1ec7n T\u00e2n K\u1ef3", "districtType": "Huy\u1ec7n", "districtShort": "T\u00e2n K\u1ef3", "districtLat": 19.07488, "districtLon": 105.172682}, "huyenanhson": {"districtKeywords": ["huyenanhson", "anhson"], "district": "Huy\u1ec7n Anh S\u01a1n", "districtType": "Huy\u1ec7n", "districtShort": "Anh S\u01a1n", "districtLat": 18.968805, "districtLon": 105.055742}, "huyendienchau": {"districtKeywords": ["huyendienchau", "dienchau"], "district": "Huy\u1ec7n Di\u1ec5n Ch\u00e2u", "districtType": "Huy\u1ec7n", "districtShort": "Di\u1ec5n Ch\u00e2u", "districtLat": 19.017969, "districtLon": 105.570887}, "huyenyenthanh": {"districtKeywords": ["huyenyenthanh", "yenthanh"], "district": "Huy\u1ec7n Y\u00ean Th\u00e0nh", "districtType": "Huy\u1ec7n", "districtShort": "Y\u00ean Th\u00e0nh", "districtLat": 19.051129, "districtLon": 105.453672}, "huyendoluong": {"districtKeywords": ["huyendoluong", "doluong"], "district": "Huy\u1ec7n \u0110\u00f4 L\u01b0\u01a1ng", "districtType": "Huy\u1ec7n", "districtShort": "\u0110\u00f4 L\u01b0\u01a1ng", "districtLat": 18.899098, "districtLon": 105.336536}, "huyenthanhchuong": {"districtKeywords": ["huyenthanhchuong", "thanhchuong"], "district": "Huy\u1ec7n Thanh Ch\u01b0\u01a1ng", "districtType": "Huy\u1ec7n", "districtShort": "Thanh Ch\u01b0\u01a1ng", "districtLat": 18.696774, "districtLon": 105.266293}, "huyennghiloc": {"districtKeywords": ["huyennghiloc", "nghiloc"], "district": "Huy\u1ec7n Nghi L\u1ed9c", "districtType": "Huy\u1ec7n", "districtShort": "Nghi L\u1ed9c", "districtLat": 18.829027, "districtLon": 105.617794}, "huyennamdan": {"districtKeywords": ["huyennamdan", "namdan"], "district": "Huy\u1ec7n Nam \u0110\u00e0n", "districtType": "Huy\u1ec7n", "districtShort": "Nam \u0110\u00e0n", "districtLat": 18.698345, "districtLon": 105.523991}, "huyenhungnguyen": {"districtKeywords": ["huyenhungnguyen", "hungnguyen"], "district": "Huy\u1ec7n H\u01b0ng Nguy\u00ean", "districtType": "Huy\u1ec7n", "districtShort": "H\u01b0ng Nguy\u00ean", "districtLat": 18.631674, "districtLon": 105.629523}, "thixahoangmai": {"districtKeywords": ["thixahoangmai", "hoangmai"], "district": "Th\u1ecb x\u00e3 Ho\u00e0ng Mai", "districtType": "Th\u1ecb x\u00e3", "districtShort": "Ho\u00e0ng Mai", "districtLat": 19.268332, "districtLon": 105.716197}}, "tinhhatinh": {"thanhphohatinh": {"districtKeywords": ["thanhphohatinh", "hatinh"], "district": "Th\u00e0nh ph\u1ed1 H\u00e0 T\u0129nh", "districtType": "Th\u00e0nh ph\u1ed1", "districtShort": "H\u00e0 T\u0129nh", "districtLat": 18.342042, "districtLon": 105.892349}, "thixahonglinh": {"districtKeywords": ["thixahonglinh", "honglinh"], "district": "Th\u1ecb x\u00e3 H\u1ed3ng L\u0129nh", "districtType": "Th\u1ecb x\u00e3", "districtShort": "H\u1ed3ng L\u0129nh", "districtLat": 18.529975, "districtLon": 105.706087}, "huyenhuongson": {"districtKeywords": ["huyenhuongson", "huongson"], "district": "Huy\u1ec7n H\u01b0\u01a1ng S\u01a1n", "districtType": "Huy\u1ec7n", "districtShort": "H\u01b0\u01a1ng S\u01a1n", "districtLat": 18.511801, "districtLon": 105.266293}, "huyenductho": {"districtKeywords": ["huyenductho", "ductho"], "district": "Huy\u1ec7n \u0110\u1ee9c Th\u1ecd", "districtType": "Huy\u1ec7n", "districtShort": "\u0110\u1ee9c Th\u1ecd", "districtLat": 18.505672, "districtLon": 105.617794}, "huyenvuquang": {"districtKeywords": ["huyenvuquang", "vuquang"], "district": "Huy\u1ec7n V\u0169 Quang", "districtType": "Huy\u1ec7n", "districtShort": "V\u0169 Quang", "districtLat": 18.336594, "districtLon": 105.430238}, "huyennghixuan": {"districtKeywords": ["huyennghixuan", "nghixuan"], "district": "Huy\u1ec7n Nghi Xu\u00e2n", "districtType": "Huy\u1ec7n", "districtShort": "Nghi Xu\u00e2n", "districtLat": 18.66423, "districtLon": 105.755656}, "huyencanloc": {"districtKeywords": ["huyencanloc", "canloc"], "district": "Huy\u1ec7n Can L\u1ed9c", "districtType": "Huy\u1ec7n", "districtShort": "Can L\u1ed9c", "districtLat": 18.451601, "districtLon": 105.711646}, "huyenhuongkhe": {"districtKeywords": ["huyenhuongkhe", "huongkhe"], "district": "Huy\u1ec7n H\u01b0\u01a1ng Kh\u00ea", "districtType": "Huy\u1ec7n", "districtShort": "H\u01b0\u01a1ng Kh\u00ea", "districtLat": 18.203756, "districtLon": 105.641253}, "huyenthachha": {"districtKeywords": ["huyenthachha", "thachha"], "district": "Huy\u1ec7n Th\u1ea1ch H\u00e0", "districtType": "Huy\u1ec7n", "districtShort": "Th\u1ea1ch H\u00e0", "districtLat": 18.301316, "districtLon": 105.852515}, "huyencamxuyen": {"districtKeywords": ["huyencamxuyen", "camxuyen"], "district": "Huy\u1ec7n C\u1ea9m Xuy\u00ean", "districtType": "Huy\u1ec7n", "districtShort": "C\u1ea9m Xuy\u00ean", "districtLat": 18.172165, "districtLon": 106.016997}, "huyenkyanh": {"districtKeywords": ["kyanhhuyen", "huyenkyanh", "hkyanh"], "district": "Huy\u1ec7n K\u1ef3 Anh", "districtType": "Huy\u1ec7n", "districtShort": "K\u1ef3 Anh (Huy\u1ec7n)", "districtLat": 18.064047, "districtLon": 106.205148}, "thixakyanh": {"districtKeywords": ["kyanhthixa", "thixakyanh", "txkyanh"], "district": "Th\u1ecb x\u00e3 K\u1ef3 Anh", "districtType": "Th\u1ecb x\u00e3", "districtShort": "K\u1ef3 Anh (Th\u1ecb x\u00e3)", "districtLat": 18.069114, "districtLon": 106.294614}}, "tinhquangbinh": {"thanhphodonghoi": {"districtKeywords": ["thanhphodonghoi", "donghoi"], "district": "Th\u00e0nh Ph\u1ed1 \u0110\u1ed3ng H\u1edbi", "districtType": "Th\u00e0nh ph\u1ed1", "districtShort": "\u0110\u1ed3ng H\u1edbi", "districtLat": 17.465939, "districtLon": 106.598396}, "huyenminhhoa": {"districtKeywords": ["huyenminhhoa", "minhhoa"], "district": "Huy\u1ec7n Minh H\u00f3a", "districtType": "Huy\u1ec7n", "districtShort": "Minh H\u00f3a", "districtLat": 17.719816, "districtLon": 105.92299}, "huyentuyenhoa": {"districtKeywords": ["huyentuyenhoa", "tuyenhoa"], "district": "Huy\u1ec7n Tuy\u00ean H\u00f3a", "districtType": "Huy\u1ec7n", "districtShort": "Tuy\u00ean H\u00f3a", "districtLat": 17.788169, "districtLon": 106.205148}, "huyenquangtrach": {"districtKeywords": ["huyenquangtrach", "quangtrach"], "district": "Huy\u1ec7n Qu\u1ea3ng Tr\u1ea1ch", "districtType": "Huy\u1ec7n", "districtShort": "Qu\u1ea3ng Tr\u1ea1ch", "districtLat": 17.864013, "districtLon": 106.393478}, "huyenbotrach": {"districtKeywords": ["huyenbotrach", "botrach"], "district": "Huy\u1ec7n B\u1ed1 Tr\u1ea1ch", "districtType": "Huy\u1ec7n", "districtShort": "B\u1ed1 Tr\u1ea1ch", "districtLat": 17.504708, "districtLon": 106.299291}, "huyenquangninh": {"districtKeywords": ["huyenquangninh", "quangninh"], "district": "Huy\u1ec7n Qu\u1ea3ng Ninh", "districtType": "Huy\u1ec7n", "districtShort": "Qu\u1ea3ng Ninh", "districtLat": 17.263611, "districtLon": 106.440587}, "huyenlethuy": {"districtKeywords": ["huyenlethuy", "lethuy"], "district": "Huy\u1ec7n L\u1ec7 Th\u1ee7y", "districtType": "Huy\u1ec7n", "districtShort": "L\u1ec7 Th\u1ee7y", "districtLat": 17.106491, "districtLon": 106.676292}, "thixabadon": {"districtKeywords": ["thixabadon", "badon"], "district": "Th\u1ecb x\u00e3 Ba \u0110\u1ed3n", "districtType": "Th\u1ecb x\u00e3", "districtShort": "Ba \u0110\u1ed3n", "districtLat": 17.75398, "districtLon": 106.421448}}, "tinhquangtri": {"thanhphodongha": {"districtKeywords": ["thanhphodongha", "dongha"], "district": "Th\u00e0nh ph\u1ed1 \u0110\u00f4ng H\u00e0", "districtType": "Th\u00e0nh ph\u1ed1", "districtShort": "\u0110\u00f4ng H\u00e0", "districtLat": 16.793327, "districtLon": 107.110572}, "thixaquangtri": {"districtKeywords": ["thixaquangtri", "quangtri"], "district": "Th\u1ecb x\u00e3 Qu\u1ea3ng Tr\u1ecb", "districtType": "Th\u1ecb x\u00e3", "districtShort": "Qu\u1ea3ng Tr\u1ecb", "districtLat": 16.740307, "districtLon": 107.185468}, "huyenvinhlinh": {"districtKeywords": ["huyenvinhlinh", "vinhlinh"], "district": "Huy\u1ec7n V\u0129nh Linh", "districtType": "Huy\u1ec7n", "districtShort": "V\u0129nh Linh", "districtLat": 17.015938, "districtLon": 106.93586}, "huyenhuonghoa": {"districtKeywords": ["huyenhuonghoa", "huonghoa"], "district": "Huy\u1ec7n H\u01b0\u1edbng H\u00f3a", "districtType": "Huy\u1ec7n", "districtShort": "H\u01b0\u1edbng H\u00f3a", "districtLat": 16.649551, "districtLon": 106.676292}, "huyengiolinh": {"districtKeywords": ["huyengiolinh", "giolinh"], "district": "Huy\u1ec7n Gio Linh", "districtType": "Huy\u1ec7n", "districtShort": "Gio Linh", "districtLat": 16.920594, "districtLon": 106.983087}, "huyendakrong": {"districtKeywords": ["huyendakrong", "dakrong"], "district": "Huy\u1ec7n \u0110a Kr\u00f4ng", "districtType": "Huy\u1ec7n", "districtShort": "\u0110a Kr\u00f4ng", "districtLat": 16.534917, "districtLon": 106.959472}, "huyencamlo": {"districtKeywords": ["huyencamlo", "camlo"], "district": "Huy\u1ec7n Cam L\u1ed9", "districtType": "Huy\u1ec7n", "districtShort": "Cam L\u1ed9", "districtLat": 16.783695, "districtLon": 106.983087}, "huyentrieuphong": {"districtKeywords": ["huyentrieuphong", "trieuphong"], "district": "Huy\u1ec7n Tri\u1ec7u Phong", "districtType": "Huy\u1ec7n", "districtShort": "Tri\u1ec7u Phong", "districtLat": 16.813234, "districtLon": 107.172085}, "huyenhailang": {"districtKeywords": ["huyenhailang", "hailang"], "district": "Huy\u1ec7n H\u1ea3i L\u0103ng", "districtType": "Huy\u1ec7n", "districtShort": "H\u1ea3i L\u0103ng", "districtLat": 16.668457, "districtLon": 107.26664}, "huyenconco": {"districtKeywords": ["huyenconco", "conco"], "district": "Huy\u1ec7n C\u1ed3n C\u1ecf", "districtType": "Huy\u1ec7n", "districtShort": "C\u1ed3n C\u1ecf", "districtLat": 17.16065, "districtLon": 107.340535}}, "thanhphohue": {"quanthuanhoa": {"districtKeywords": ["quanthuanhoa", "thuanhoa"], "district": "Qu\u1eadn Thu\u1eadn H\u00f3a", "districtType": "Qu\u1eadn", "districtShort": "Thu\u1eadn H\u00f3a", "districtLat": 16.463712, "districtLon": 107.590863}, "quanphuxuan": {"districtKeywords": ["quanphuxuan", "phuxuan"], "district": "Qu\u1eadn Ph\u00fa Xu\u00e2n", "districtType": "Qu\u1eadn", "districtShort": "Ph\u00fa Xu\u00e2n", "districtLat": 16.463712, "districtLon": 107.590863}, "thixaphongdien": {"districtKeywords": ["thixaphongdien", "phongdien"], "district": "Th\u1ecb x\u00e3 Phong \u0110i\u1ec1n", "districtType": "Th\u1ecb x\u00e3", "districtShort": "Phong \u0110i\u1ec1n", "districtLat": 16.503112, "districtLon": 107.337579}, "huyenquangdien": {"districtKeywords": ["huyenquangdien", "quangdien"], "district": "Huy\u1ec7n Qu\u1ea3ng \u0110i\u1ec1n", "districtType": "Huy\u1ec7n", "districtShort": "Qu\u1ea3ng \u0110i\u1ec1n", "districtLat": 16.592284, "districtLon": 107.491349}, "huyenphuvang": {"districtKeywords": ["huyenphuvang", "phuvang"], "district": "Huy\u1ec7n Ph\u00fa Vang", "districtType": "Huy\u1ec7n", "districtShort": "Ph\u00fa Vang", "districtLat": 16.445809, "districtLon": 107.739935}, "thixahuongthuy": {"districtKeywords": ["thixahuongthuy", "huongthuy"], "district": "Th\u1ecb x\u00e3 H\u01b0\u01a1ng Th\u1ee7y", "districtType": "Th\u1ecb x\u00e3", "districtShort": "H\u01b0\u01a1ng Th\u1ee7y", "districtLat": 16.408957, "districtLon": 107.677252}, "thixahuongtra": {"districtKeywords": ["thixahuongtra", "huongtra"], "district": "Th\u1ecb x\u00e3 H\u01b0\u01a1ng Tr\u00e0", "districtType": "Th\u1ecb x\u00e3", "districtShort": "H\u01b0\u01a1ng Tr\u00e0", "districtLat": 16.487057, "districtLon": 107.500951}, "huyenaluoi": {"districtKeywords": ["huyenaluoi", "aluoi"], "district": "Huy\u1ec7n A L\u01b0\u1edbi", "districtType": "Huy\u1ec7n", "districtShort": "A L\u01b0\u1edbi", "districtLat": 16.230374, "districtLon": 107.337579}, "huyenphuloc": {"districtKeywords": ["huyenphuloc", "phuloc"], "district": "Huy\u1ec7n Ph\u00fa L\u1ed9c", "districtType": "Huy\u1ec7n", "districtShort": "Ph\u00fa L\u1ed9c", "districtLat": 16.272632, "districtLon": 107.905781}}, "thanhphodanang": {"quanlienchieu": {"districtKeywords": ["quanlienchieu", "lienchieu"], "district": "Qu\u1eadn Li\u00ean Chi\u1ec3u", "districtType": "Qu\u1eadn", "districtShort": "Li\u00ean Chi\u1ec3u", "districtLat": 16.153167, "districtLon": 108.107292}, "quanthanhkhe": {"districtKeywords": ["quanthanhkhe", "thanhkhe"], "district": "Qu\u1eadn Thanh Kh\u00ea", "districtType": "Qu\u1eadn", "districtShort": "Thanh Kh\u00ea", "districtLat": 16.06418, "districtLon": 108.187341}, "quanhaichau": {"districtKeywords": ["quanhaichau", "haichau"], "district": "Qu\u1eadn H\u1ea3i Ch\u00e2u", "districtType": "Qu\u1eadn", "districtShort": "H\u1ea3i Ch\u00e2u", "districtLat": 16.0472, "districtLon": 108.219959}, "quansontra": {"districtKeywords": ["quansontra", "sontra"], "district": "Qu\u1eadn S\u01a1n Tr\u00e0", "districtType": "Qu\u1eadn", "districtShort": "S\u01a1n Tr\u00e0", "districtLat": 16.115984, "districtLon": 108.273341}, "quannguhanhson": {"districtKeywords": ["quannguhanhson", "nguhanhson"], "district": "Qu\u1eadn Ng\u0169 H\u00e0nh S\u01a1n", "districtType": "Qu\u1eadn", "districtShort": "Ng\u0169 H\u00e0nh S\u01a1n", "districtLat": 15.998891, "districtLon": 108.255546}, "quancamle": {"districtKeywords": ["quancamle", "camle"], "district": "Qu\u1eadn C\u1ea9m L\u1ec7", "districtType": "Qu\u1eadn", "districtShort": "C\u1ea9m L\u1ec7", "districtLat": 16.015367, "districtLon": 108.196236}, "huyenhoavang": {"districtKeywords": ["huyenhoavang", "hoavang"], "district": "Huy\u1ec7n H\u00f2a Vang", "districtType": "Huy\u1ec7n", "districtShort": "H\u00f2a Vang", "districtLat": 16.058563, "districtLon": 108.024301}, "huyenhoangsa": {"districtKeywords": ["huyenhoangsa", "hoangsa"], "district": "Huy\u1ec7n Ho\u00e0ng Sa", "districtType": "Huy\u1ec7n", "districtShort": "Ho\u00e0ng Sa", "districtLat": 16.054407, "districtLon": 108.202167}}, "tinhquangnam": {"thanhphotamky": {"districtKeywords": ["thanhphotamky", "tamky"], "district": "Th\u00e0nh ph\u1ed1 Tam K\u1ef3", "districtType": "Th\u00e0nh ph\u1ed1", "districtShort": "Tam K\u1ef3", "districtLat": 15.563829, "districtLon": 108.482168}, "thanhphohoian": {"districtKeywords": ["thanhphohoian", "hoian"], "district": "Th\u00e0nh ph\u1ed1 H\u1ed9i An", "districtType": "Th\u00e0nh ph\u1ed1", "districtShort": "H\u1ed9i An", "districtLat": 15.879924, "districtLon": 108.326749}, "huyentaygiang": {"districtKeywords": ["huyentaygiang", "taygiang"], "district": "Huy\u1ec7n T\u00e2y Giang", "districtType": "Huy\u1ec7n", "districtShort": "T\u00e2y Giang", "districtLat": 15.851725, "districtLon": 107.526847}, "huyendonggiang": {"districtKeywords": ["huyendonggiang", "donggiang"], "district": "Huy\u1ec7n \u0110\u00f4ng Giang", "districtType": "Huy\u1ec7n", "districtShort": "\u0110\u00f4ng Giang", "districtLat": 15.926451, "districtLon": 107.71625}, "huyendailoc": {"districtKeywords": ["huyendailoc", "dailoc"], "district": "Huy\u1ec7n \u0110\u1ea1i L\u1ed9c", "districtType": "Huy\u1ec7n", "districtShort": "\u0110\u1ea1i L\u1ed9c", "districtLat": 15.836507, "districtLon": 107.976888}, "thixadienban": {"districtKeywords": ["thixadienban", "dienban"], "district": "Th\u1ecb x\u00e3 \u0110i\u1ec7n B\u00e0n", "districtType": "Th\u1ecb x\u00e3", "districtShort": "\u0110i\u1ec7n B\u00e0n", "districtLat": 15.906497, "districtLon": 108.214028}, "huyenduyxuyen": {"districtKeywords": ["huyenduyxuyen", "duyxuyen"], "district": "Huy\u1ec7n Duy Xuy\u00ean", "districtType": "Huy\u1ec7n", "districtShort": "Duy Xuy\u00ean", "districtLat": 15.77511, "districtLon": 108.166586}, "huyenqueson": {"districtKeywords": ["huyenqueson", "queson"], "district": "Huy\u1ec7n Qu\u1ebf S\u01a1n", "districtType": "Huy\u1ec7n", "districtShort": "Qu\u1ebf S\u01a1n", "districtLat": 15.680781, "districtLon": 108.214028}, "huyennamgiang": {"districtKeywords": ["huyennamgiang", "namgiang"], "district": "Huy\u1ec7n Nam Giang", "districtType": "Huy\u1ec7n", "districtShort": "Nam Giang", "districtLat": 15.662855, "districtLon": 107.621532}, "huyenphuocson": {"districtKeywords": ["huyenphuocson", "phuocson"], "district": "Huy\u1ec7n Ph\u01b0\u1edbc S\u01a1n", "districtType": "Huy\u1ec7n", "districtShort": "Ph\u01b0\u1edbc S\u01a1n", "districtLat": 15.376252, "districtLon": 107.811},