address,latitude,longitude,bounds,geo_address
Tỉnh Bến Tre,10.108155,106.440587,"9.790439,106.028225 – 10.340423,106.791908","Ben Tre, Vietnam"
Tỉnh An Giang,10.521584,105.125896,"10.183524,104.778069 – 10.962524,105.575616","An Giang, Vietnam"
Tỉnh Hải Dương,20.90872,106.393478,"20.684379,106.124369 – 21.236993,106.611436","Hai Duong, Vietnam"
Tỉnh Quảng Ninh,21.24325,107.19572,"20.687466,106.439154 – 21.663764,108.08694","Quảng Ninh, Vietnam"
Tỉnh Bình Dương,11.142383,106.62913,"10.863808,106.326367 – 11.500854,106.966691","Binh Duong, Vietnam"
Tỉnh Thanh Hóa,19.825986,105.594339,"19.286987,104.374384 – 20.67067,106.075862","Thanh Hoa, Vietnam"
Thành phố Hải Phòng,20.844912,106.688084,"20.814211,106.637592 – 20.879263,106.759901","Haiphong, Hai Phong, Vietnam"
Tỉnh Lạng Sơn,21.856371,106.62913,"21.32515,106.09538 – 22.461466,107.363976","Lạng Sơn, Vietnam"
Thành phố Hà Nội,21.027764,105.83416,"20.995099,105.797482 – 21.05038,105.876446","Hanoi, Vietnam"
Tỉnh Sóc Trăng,9.617375,105.876004,"9.243698,105.543663 – 9.938067,106.335103","Soc Trang, Vietnam"
Tỉnh Hậu Giang,9.757898,105.641253,"9.582151,105.328525 – 9.994115,105.896806","Hau Giang, Vietnam"
Thành phố Cần Thơ,10.045162,105.746854,"9.993703,105.717058 – 10.074671,105.798083","Can Tho, Ninh Kiều, Cần Thơ, Vietnam"
Tỉnh Tây Ninh,11.349477,106.064018,"10.962521,105.808429 – 11.782825,106.492408","Tây Ninh, Vietnam"
Tỉnh Hà Giang,22.766206,104.938885,"22.16556,104.335331 – 23.39265,105.57408","Hà Giang, Vietnam"
Tỉnh Hà Tĩnh,18.245968,105.688179,"17.90839,105.104008 – 18.804859,106.510618","Ha Tinh, Vietnam"
Tỉnh Hòa Bình,20.686127,105.313119,"20.305359,104.836475 – 21.112768,105.85722","Hoa Binh, Vietnam"
Thành phố Hồ Chí Minh,10.823099,106.629664,"10.34937,106.363878 – 11.160214,107.026577","Ho Chi Minh City, Vietnam"
Tỉnh Khánh Hòa,12.209887,109.092876,"11.768928,108.671013 – 12.868524,109.469249","Khánh Hòa, Vietnam"
Tỉnh Long An,10.685145,106.205148,"10.395415,105.498589 – 11.03217,106.748486","Long An, Vietnam"
Tỉnh Thái Nguyên,21.561377,105.876004,"21.325344,105.477505 – 22.047867,106.237992","Thai Nguyen, Vietnam"
Tỉnh Quảng Ngãi,15.075984,108.712579,"14.53273,108.235489 – 15.433271,109.147416","Quang Ngai, Vietnam"
Tỉnh Ninh Thuận,11.699403,108.902683,"11.306938,108.551662 – 12.164534,109.23348","Ninh Thuận, Vietnam"
Tỉnh Hưng Yên,20.852571,106.016997,"20.603096,105.895325 – 21.007209,106.269528","Hung Yen, Vietnam"
Tỉnh Ninh Bình,20.212997,105.92299,"19.915586,105.542759 – 20.454709,106.168197","Ninh Bình, Vietnam"
Tỉnh Hà Nam,20.58352,105.92299,"20.362918,105.768582 – 20.704382,106.183314","Hà Nam, Vietnam"
Tỉnh Phú Yên,13.088186,109.092876,"12.706478,108.673108 – 13.695148,109.459014","Phú Yên, Vietnam"
Tỉnh Tiền Giang,10.419005,106.299291,"10.19041,105.815732 – 10.587144,106.816692","Tien Giang, Vietnam"
Tỉnh Bình Định,14.166532,108.902683,"13.515217,108.601252 – 14.703202,109.370951","Binh Dinh, Vietnam"
Tỉnh Đồng Tháp,10.493799,105.688179,"10.134119,105.187392 – 10.973419,105.942089","Dong Thap, Vietnam"
Thành phố Đà Nẵng,16.054407,108.202167,"15.999203,108.177996 – 16.095135,108.235417","Da Nang, Hải Châu District, Da Nang, Vietnam"
Tỉnh Tuyên Quang,22.172671,105.313119,"21.497589,104.848598 – 22.69597,105.598308","Tuyên Quang, Vietnam"
Tỉnh Đồng Nai,11.109764,107.19572,"10.522389,106.751168 – 11.581994,107.577289","Dong Nai, Vietnam"
Tỉnh Bình Thuận,11.064489,107.953184,"10.48313,107.394199 – 11.555579,108.969445","Bình Thuận, Vietnam"
Tỉnh Vĩnh Long,10.086128,106.016997,"9.882871,105.682816 – 10.330647,106.289636","Vinh Long, Vietnam"
Tỉnh Cà Mau,8.96241,105.125896,"8.408631,104.70541 – 9.562016,105.41915","Ca Mau, Vietnam"
Tỉnh Đắk Lắk,12.710012,108.237752,"12.160793,107.484724 – 13.416587,108.9953","Dak Lak, Vietnam"
Tỉnh Đắk Nông,12.301768,107.763621,"11.748847,107.206454 – 12.812316,108.116696","Dak Nong, Vietnam"
Tỉnh Gia Lai,13.773701,108.237752,"12.995729,107.4517 – 14.603162,108.873318","Gia Lai, Vietnam"
Tỉnh Kon Tum,14.517883,107.858387,"13.921423,107.332274 – 15.417533,108.546889","Kon Tum, Vietnam"
Tỉnh Quảng Trị,16.667698,107.006703,"16.301578,106.516237 – 17.166514,107.389289","Quảng Trị, Vietnam"
Tỉnh Quảng Bình,17.462758,106.252214,"16.921375,105.607849 – 18.089951,106.994205","Quảng Bình, Vietnam"
Thành phố Huế,16.463712,107.590863,"16.399085,107.525118 – 16.507696,107.629108","Huế, Hue City, Vietnam"
Tỉnh Nghệ An,19.148371,104.845462,"18.552117,103.874957 – 19.994248,105.806701","Nghe An, Vietnam"
Tỉnh Quảng Nam,15.598002,107.858387,"14.951354,107.210525 – 16.067075,108.739043","Quảng Nam, Vietnam"
Tỉnh Trà Vinh,9.762666,106.440587,"9.52957,105.954726 – 10.081762,106.607011","Tra Vinh, Vietnam"
Tỉnh Bạc Liêu,9.289943,105.500548,"9.014727,105.23248 – 9.637453,105.860139","Bac Lieu, Vietnam"
Tỉnh Kiên Giang,9.824959,105.125896,"9.254282,103.456825 – 10.539558,105.539526","Kien Giang, Vietnam"
Tỉnh Lâm Đồng,11.575279,108.142867,"11.215165,107.265751 – 12.317439,108.73195","Lam Dong, Vietnam"
Tỉnh Bình Phước,11.751189,106.723464,"11.301407,106.411722 – 12.298437,107.427652","Binh Phuoc, Vietnam"
Tỉnh Bà Rịa - Vũng Tàu,10.54174,107.242998,"8.628084,106.536388 – 10.803912,107.573272","Ba Ria - Vung Tau, Vietnam"
Tỉnh Yên Bái,21.683525,104.565527,"21.32592,103.886237 – 22.291865,105.100332","Yên Bái, Vietnam"
Tỉnh Bắc Giang,21.301495,106.62913,"21.121951,105.880567 – 21.626274,107.033472","Bac Giang, Vietnam"
Tỉnh Sơn La,21.172464,104.007235,"20.573004,103.211996 – 22.0284,105.025308","Son La, Vietnam"
Tỉnh Lai Châu,22.355483,103.266348,"21.684461,102.320669 – 22.811256,103.985314","Lai Chau, Vietnam"
Tỉnh Cao Bằng,22.635689,106.252214,"22.356923,105.271542 – 23.118125,106.837373","Cao Bang, Vietnam"
Tỉnh Lào Cai,22.275944,104.193092,"21.875113,103.530412 – 22.844861,104.628655","Lao Cai, Vietnam"
Tỉnh Điện Biên,21.809171,103.08179,"20.892692,102.144018 – 22.54805,103.598795","Dien Bien, Vietnam"
Tỉnh Bắc Kạn,22.303292,105.876004,"21.804335,105.431119 – 22.739601,106.247003","Bắc Kạn, Vietnam"
Tỉnh Nam Định,20.27918,106.205148,"19.88846,105.92405 – 20.499194,106.591923","Nam Dinh, Vietnam"
Tỉnh Bắc Ninh,21.121444,106.11105,"20.969118,105.90247 – 21.264298,106.31193","Bac Ninh, Vietnam"
Tỉnh Vĩnh Phúc,21.360881,105.547437,"21.154104,105.322481 – 21.573842,105.792899","Vĩnh Phúc, Vietnam"
Tỉnh Phú Thọ,21.260668,105.125896,"20.917027,104.815401 – 21.719645,105.456822","Phú Thọ, Vietnam"
Tỉnh Thái Bình,20.538694,106.393478,"20.244052,106.10967 – 20.728989,106.656427","Thai Binh, Vietnam"
